[
  {
    "lat": 53.369089,
    "lng": -6.223229,
    "date": "Friday, October 1, 1976",
    "city": "Dublin",
    "state": "",
    "country": "Ireland",
    "event": "",
    "tour": "Early Irish Shows",
    "leg": 1,
    "venue": "Mount Temple Comprehensive School"
  },
  {
    "lat": 53.389251,
    "lng": -6.11806,
    "date": "Monday, April 11, 1977",
    "city": "Dublin",
    "state": "",
    "country": "Ireland",
    "event": "",
    "tour": "Early Irish Shows",
    "leg": 1,
    "venue": "St. Fintan's School"
  },
  {
    "lat": 53.344104,
    "lng": -6.267494,
    "date": "Tuesday, April 12, 1977",
    "city": "Dublin",
    "state": "",
    "country": "Ireland",
    "event": "",
    "tour": "Early Irish Shows",
    "leg": 1,
    "venue": "unknown"
  },
  {
    "lat": 53.3482,
    "lng": -6.2598,
    "date": "Wednesday, April 13, 1977",
    "city": "Dublin",
    "state": "",
    "country": "Ireland",
    "event": "",
    "tour": "Early Irish Shows",
    "leg": 1,
    "venue": "Slack Alice's"
  },
  {
    "lat": 53.389343,
    "lng": -6.110287,
    "date": "Friday, October 7, 1977",
    "city": "Dublin",
    "state": "",
    "country": "Ireland",
    "event": "",
    "tour": "Early Irish Shows",
    "leg": 1,
    "venue": "Marine Hotel"
  },
  {
    "lat": 53.308245,
    "lng": -6.293384,
    "date": "Saturday, October 15, 1977",
    "city": "Dublin",
    "state": "",
    "country": "Ireland",
    "event": "",
    "tour": "Early Irish Shows",
    "leg": 1,
    "venue": "Suttonians Rugby Football Club"
  },
  {
    "lat": 53.390634,
    "lng": -6.086049,
    "date": "Saturday, December 17, 1977",
    "city": "Howth",
    "state": "",
    "country": "Ireland",
    "event": "",
    "tour": "Early Irish Shows",
    "leg": 1,
    "venue": "Howth Presbyterian Church"
  },
  {
    "lat": 53.314722,
    "lng": -6.223889,
    "date": "Sunday, January 1, 1978",
    "city": "Dublin",
    "state": "",
    "country": "Ireland",
    "event": "",
    "tour": "Early Irish Shows",
    "leg": 1,
    "venue": "RTE Studios"
  },
  {
    "lat": 53.295602,
    "lng": -6.137495,
    "date": "Monday, January 2, 1978",
    "city": "Crofton",
    "state": "",
    "country": "Ireland",
    "event": "",
    "tour": "Early Irish Shows",
    "leg": 1,
    "venue": "Crofton Airport Hotel"
  },
  {
    "lat": 53.369089,
    "lng": -6.223229,
    "date": "Friday, February 10, 1978",
    "city": "Dublin",
    "state": "",
    "country": "Ireland",
    "event": "",
    "tour": "Early Irish Shows",
    "leg": 1,
    "venue": "Mount Temple Comprehensive School"
  },
  {
    "lat": 53.344104,
    "lng": -6.267494,
    "date": "Wednesday, March 1, 1978",
    "city": "Unknown",
    "state": "",
    "country": "Ireland",
    "event": "",
    "tour": "Early Irish Shows",
    "leg": 1,
    "venue": "Youngline - Irish TV"
  },
  {
    "lat": 53.385847,
    "lng": -6.064684,
    "date": "Saturday, March 4, 1978",
    "city": "Howth",
    "state": "",
    "country": "Ireland",
    "event": "",
    "tour": "Early Irish Shows",
    "leg": 1,
    "venue": "Howth Presbyterian Church Hall"
  },
  {
    "lat": 53.345055,
    "lng": -6.266112,
    "date": "Thursday, March 16, 1978",
    "city": "Dublin",
    "state": "",
    "country": "Ireland",
    "event": "",
    "tour": "Early Irish Shows",
    "leg": 1,
    "venue": "Project Arts Centre"
  },
  {
    "lat": 53.390634,
    "lng": -6.086049,
    "date": "Monday, March 20, 1978",
    "city": "Dublin",
    "state": "",
    "country": "Ireland",
    "event": "",
    "tour": "Early Irish Shows",
    "leg": 1,
    "venue": "Howth Presbyterian Church Hall"
  },
  {
    "lat": 53.3371,
    "lng": -6.2558,
    "date": "Tuesday, April 11, 1978",
    "city": "Dublin",
    "state": "",
    "country": "Ireland",
    "event": "",
    "tour": "Early Irish Shows",
    "leg": 1,
    "venue": "McGonagle's"
  },
  {
    "lat": 53.345055,
    "lng": -6.266112,
    "date": "Thursday, May 25, 1978",
    "city": "Dublin",
    "state": "",
    "country": "Ireland",
    "event": "",
    "tour": "Early Irish Shows",
    "leg": 1,
    "venue": "Project Arts Centre"
  },
  {
    "lat": 53.369089,
    "lng": -6.223229,
    "date": "Thursday, June 1, 1978",
    "city": "Dublin",
    "state": "",
    "country": "Ireland",
    "event": "",
    "tour": "Early Irish Shows",
    "leg": 1,
    "venue": "Mount Temple Comprehensive School"
  },
  {
    "lat": 53.3371,
    "lng": -6.2558,
    "date": "Monday, July 31, 1978",
    "city": "Dublin",
    "state": "",
    "country": "Ireland",
    "event": "",
    "tour": "Early Irish Shows",
    "leg": 1,
    "venue": "McGonagle's"
  },
  {
    "lat": 53.348297,
    "lng": -6.255041,
    "date": "Tuesday, August 1, 1978",
    "city": "Dublin",
    "state": "",
    "country": "Ireland",
    "event": "",
    "tour": "Early Irish Shows",
    "leg": 1,
    "venue": "Liberty Hall"
  },
  {
    "lat": 53.3371,
    "lng": -6.2558,
    "date": "Wednesday, August 2, 1978",
    "city": "Dublin",
    "state": "",
    "country": "Ireland",
    "event": "",
    "tour": "Early Irish Shows",
    "leg": 1,
    "venue": "McGonagle's"
  },
  {
    "lat": 53.294709,
    "lng": -6.134351,
    "date": "Saturday, September 9, 1978",
    "city": "Dublin",
    "state": "",
    "country": "Ireland",
    "event": "",
    "tour": "Early Irish Shows",
    "leg": 1,
    "venue": "Top Hat Ballroom"
  },
  {
    "lat": 53.345055,
    "lng": -6.266112,
    "date": "Monday, September 18, 1978",
    "city": "Dublin",
    "state": "",
    "country": "Ireland",
    "event": "",
    "tour": "Early Irish Shows",
    "leg": 1,
    "venue": "Project Arts Centre"
  },
  {
    "lat": 53.384167,
    "lng": -6.214444,
    "date": "Monday, December 11, 1978",
    "city": "Dublin",
    "state": "",
    "country": "Ireland",
    "event": "",
    "tour": "Early Irish Shows",
    "leg": 1,
    "venue": "The Stardust"
  },
  {
    "lat": 53.3371,
    "lng": -6.2558,
    "date": "Wednesday, January 3, 1979",
    "city": "Dublin",
    "state": "",
    "country": "Ireland",
    "event": "",
    "tour": "Early Irish Shows",
    "leg": 1,
    "venue": "McGonagle's"
  },
  {
    "lat": 53.3371,
    "lng": -6.2558,
    "date": "Saturday, February 3, 1979",
    "city": "Dublin",
    "state": "",
    "country": "Ireland",
    "event": "",
    "tour": "Early Irish Shows",
    "leg": 1,
    "venue": "McGonagle's"
  },
  {
    "lat": 53.344444,
    "lng": -6.258333,
    "date": "Saturday, February 3, 1979",
    "city": "Dublin",
    "state": "",
    "country": "Ireland",
    "event": "",
    "tour": "Early Irish Shows",
    "leg": 1,
    "venue": "Trinity College"
  },
  {
    "lat": 53.3371,
    "lng": -6.2558,
    "date": "Saturday, February 10, 1979",
    "city": "Dublin",
    "state": "",
    "country": "Ireland",
    "event": "",
    "tour": "Early Irish Shows",
    "leg": 1,
    "venue": "McGonagle's"
  },
  {
    "lat": 53.345055,
    "lng": -6.266112,
    "date": "Saturday, February 17, 1979",
    "city": "Dublin",
    "state": "",
    "country": "Ireland",
    "event": "",
    "tour": "Early Irish Shows",
    "leg": 1,
    "venue": "Project Arts Centre"
  },
  {
    "lat": 53.34,
    "lng": -6.262,
    "date": "Saturday, May 5, 1979",
    "city": "Dublin",
    "state": "",
    "country": "Ireland",
    "event": "",
    "tour": "Early Irish Shows",
    "leg": 1,
    "venue": "Dandelion Car Park"
  },
  {
    "lat": 53.344444,
    "lng": -6.258333,
    "date": "Saturday, May 12, 1979",
    "city": "Dublin",
    "state": "",
    "country": "Ireland",
    "event": "",
    "tour": "Early Irish Shows",
    "leg": 1,
    "venue": "Trinity College"
  },
  {
    "lat": 53.3371,
    "lng": -6.2558,
    "date": "Thursday, June 7, 1979",
    "city": "Dublin",
    "state": "",
    "country": "Ireland",
    "event": "",
    "tour": "Early Irish Shows",
    "leg": 1,
    "venue": "McGonagle's"
  },
  {
    "lat": 53.3371,
    "lng": -6.2558,
    "date": "Thursday, June 14, 1979",
    "city": "Dublin",
    "state": "",
    "country": "Ireland",
    "event": "",
    "tour": "Early Irish Shows",
    "leg": 1,
    "venue": "McGonagle's"
  },
  {
    "lat": 53.3371,
    "lng": -6.2558,
    "date": "Thursday, June 21, 1979",
    "city": "Dublin",
    "state": "",
    "country": "Ireland",
    "event": "",
    "tour": "Early Irish Shows",
    "leg": 1,
    "venue": "McGonagle's"
  },
  {
    "lat": 53.3371,
    "lng": -6.2558,
    "date": "Thursday, June 28, 1979",
    "city": "Dublin",
    "state": "",
    "country": "Ireland",
    "event": "",
    "tour": "Early Irish Shows",
    "leg": 1,
    "venue": "McGonagle's"
  },
  {
    "lat": 53.390365,
    "lng": -6.08627,
    "date": "Wednesday, July 11, 1979",
    "city": "Dublin",
    "state": "",
    "country": "Ireland",
    "event": "",
    "tour": "Early Irish Shows",
    "leg": 1,
    "venue": "Howth Community Center"
  },
  {
    "lat": 53.34,
    "lng": -6.262,
    "date": "Saturday, August 4, 1979",
    "city": "Dublin",
    "state": "",
    "country": "Ireland",
    "event": "",
    "tour": "Early Irish Shows",
    "leg": 1,
    "venue": "Dandelion Car Park"
  },
  {
    "lat": 53.390365,
    "lng": -6.08627,
    "date": "Saturday, August 11, 1979",
    "city": "Dublin",
    "state": "",
    "country": "Ireland",
    "event": "",
    "tour": "Early Irish Shows",
    "leg": 1,
    "venue": "Howth Youth Club"
  },
  {
    "lat": 53.336848,
    "lng": -6.248732,
    "date": "Tuesday, August 21, 1979",
    "city": "Dublin",
    "state": "",
    "country": "Ireland",
    "event": "",
    "tour": "Early Irish Shows",
    "leg": 1,
    "venue": "The Baggot Inn"
  },
  {
    "lat": 53.345055,
    "lng": -6.266112,
    "date": "Saturday, September 1, 1979",
    "city": "Dublin",
    "state": "",
    "country": "Ireland",
    "event": "",
    "tour": "Early Irish Shows",
    "leg": 1,
    "venue": "Project Arts Centre"
  },
  {
    "lat": 53.345055,
    "lng": -6.266112,
    "date": "Sunday, September 2, 1979",
    "city": "Dublin",
    "state": "",
    "country": "Ireland",
    "event": "",
    "tour": "Early Irish Shows",
    "leg": 1,
    "venue": "Project Arts Centre"
  },
  {
    "lat": 53.336848,
    "lng": -6.248732,
    "date": "Monday, October 1, 1979",
    "city": "Dublin",
    "state": "",
    "country": "Ireland",
    "event": "",
    "tour": "Early Irish Shows",
    "leg": 1,
    "venue": "Baggot Inn"
  },
  {
    "lat": 51.539187,
    "lng": -0.142505,
    "date": "Saturday, December 1, 1979",
    "city": "West Hampstead",
    "state": "",
    "country": "England",
    "event": "",
    "tour": "U2-3",
    "leg": 1,
    "venue": "Moonlight Club"
  },
  {
    "lat": 51.500152,
    "lng": -0.126236,
    "date": "Sunday, December 2, 1979",
    "city": "London",
    "state": "",
    "country": "England",
    "event": "",
    "tour": "U2-3",
    "leg": 1,
    "venue": "Earl's Court Nashville Rooms"
  },
  {
    "lat": 51.516099,
    "lng": -0.135172,
    "date": "Monday, December 3, 1979",
    "city": "Clapham",
    "state": "",
    "country": "England",
    "event": "",
    "tour": "U2-3",
    "leg": 1,
    "venue": "100 Club"
  },
  {
    "lat": 51.534961,
    "lng": -0.103742,
    "date": "Tuesday, December 4, 1979",
    "city": "Islington",
    "state": "",
    "country": "England",
    "event": "",
    "tour": "U2-3",
    "leg": 1,
    "venue": "Hope & Anchor"
  },
  {
    "lat": 51.513292,
    "lng": -0.120445,
    "date": "Wednesday, December 5, 1979",
    "city": "Covent Garden",
    "state": "",
    "country": "England",
    "event": "",
    "tour": "U2-3",
    "leg": 1,
    "venue": "Rock Garden"
  },
  {
    "lat": 51.539722,
    "lng": -0.143056,
    "date": "Friday, December 7, 1979",
    "city": "Camden",
    "state": "",
    "country": "England",
    "event": "",
    "tour": "U2-3",
    "leg": 1,
    "venue": "Electric Ballroom"
  },
  {
    "lat": 51.539722,
    "lng": -0.143056,
    "date": "Saturday, December 8, 1979",
    "city": "Camden",
    "state": "",
    "country": "England",
    "event": "",
    "tour": "U2-3",
    "leg": 1,
    "venue": "Electric Ballroom"
  },
  {
    "lat": 51.539187,
    "lng": -0.142505,
    "date": "Monday, December 10, 1979",
    "city": "West Hampstead",
    "state": "",
    "country": "England",
    "event": "",
    "tour": "U2-3",
    "leg": 1,
    "venue": "Moonlight Club"
  },
  {
    "lat": 51.50818,
    "lng": 0.035485,
    "date": "Tuesday, December 11, 1979",
    "city": "Canning Town",
    "state": "",
    "country": "England",
    "event": "",
    "tour": "U2-3",
    "leg": 1,
    "venue": "Bridge House"
  },
  {
    "lat": 51.532778,
    "lng": -0.472778,
    "date": "Wednesday, December 12, 1979",
    "city": "London",
    "state": "",
    "country": "England",
    "event": "",
    "tour": "U2-3",
    "leg": 1,
    "venue": "Brunel University"
  },
  {
    "lat": 51.540941,
    "lng": -0.146964,
    "date": "Friday, December 14, 1979",
    "city": "Camden",
    "state": "",
    "country": "England",
    "event": "",
    "tour": "U2-3",
    "leg": 1,
    "venue": "Dingwalls"
  },
  {
    "lat": 51.483889,
    "lng": -0.604444,
    "date": "Saturday, December 15, 1979",
    "city": "London",
    "state": "",
    "country": "England",
    "event": "",
    "tour": "U2-3",
    "leg": 1,
    "venue": "Windsor Castle"
  },
  {
    "lat": 53.338999,
    "lng": -6.261606,
    "date": "Sunday, December 23, 1979",
    "city": "Dublin",
    "state": "",
    "country": "Ireland",
    "event": "",
    "tour": "U2-3",
    "leg": 1,
    "venue": "Dandelion Market"
  },
  {
    "lat": 53.314722,
    "lng": -6.223889,
    "date": "Tuesday, January 15, 1980",
    "city": "Dublin",
    "state": "",
    "country": "Ireland",
    "event": "",
    "tour": "U2-3",
    "leg": 1,
    "venue": "RTE Studios"
  },
  {
    "lat": 54.580683,
    "lng": -5.930284,
    "date": "Friday, February 1, 1980",
    "city": "Belfast",
    "state": "",
    "country": "Northern Ireland",
    "event": "",
    "tour": "U2-3",
    "leg": 1,
    "venue": "Queen's University"
  },
  {
    "lat": 53.273797,
    "lng": -9.05178,
    "date": "Saturday, February 2, 1980",
    "city": "Galway",
    "state": "",
    "country": "Ireland",
    "event": "",
    "tour": "U2-3",
    "leg": 1,
    "venue": "Seapoint Ballroom"
  },
  {
    "lat": 53.274819,
    "lng": -7.492717,
    "date": "Sunday, February 3, 1980",
    "city": "Tullamore",
    "state": "",
    "country": "Ireland",
    "event": "",
    "tour": "U2-3",
    "leg": 1,
    "venue": "Bridge House"
  },
  {
    "lat": 53.330706,
    "lng": -6.280323,
    "date": "Tuesday, February 26, 1980",
    "city": "Dublin",
    "state": "",
    "country": "Ireland",
    "event": "",
    "tour": "U2-3",
    "leg": 1,
    "venue": "National Stadium"
  },
  {
    "lat": 51.897866,
    "lng": -8.471094,
    "date": "Saturday, March 1, 1980",
    "city": "Cork",
    "state": "",
    "country": "Ireland",
    "event": "",
    "tour": "U2-3",
    "leg": 1,
    "venue": "Country Club"
  },
  {
    "lat": 53.2667,
    "lng": -7.5,
    "date": "Sunday, March 2, 1980",
    "city": "Tullamore",
    "state": "",
    "country": "Ireland",
    "event": "",
    "tour": "U2-3",
    "leg": 1,
    "venue": "Garden Of Eden Club"
  },
  {
    "lat": 51.500152,
    "lng": -0.126236,
    "date": "Wednesday, March 19, 1980",
    "city": "London",
    "state": "",
    "country": "England",
    "event": "",
    "tour": "U2-3",
    "leg": 1,
    "venue": "Acklam Hall"
  },
  {
    "lat": 54.1119,
    "lng": -9.157326,
    "date": "Saturday, May 10, 1980",
    "city": "Ballina",
    "state": "",
    "country": "Ireland",
    "event": "",
    "tour": "U2-3",
    "leg": 1,
    "venue": "Town Hall Theatre"
  },
  {
    "lat": 53.2667,
    "lng": -7.5,
    "date": "Sunday, May 11, 1980",
    "city": "Tullamore",
    "state": "",
    "country": "Ireland",
    "event": "",
    "tour": "U2-3",
    "leg": 1,
    "venue": "Garden Of Eden Club"
  },
  {
    "lat": 51.500152,
    "lng": -0.126236,
    "date": "Thursday, May 22, 1980",
    "city": "London",
    "state": "",
    "country": "England",
    "event": "",
    "tour": "11 O'Clock Tick Tock",
    "leg": 1,
    "venue": "Hope & Anchor"
  },
  {
    "lat": 51.500152,
    "lng": -0.126236,
    "date": "Friday, May 23, 1980",
    "city": "London",
    "state": "",
    "country": "England",
    "event": "",
    "tour": "11 O'Clock Tick Tock",
    "leg": 1,
    "venue": "Moonlight Club"
  },
  {
    "lat": 53.381056,
    "lng": -1.490825,
    "date": "Saturday, May 24, 1980",
    "city": "Sheffield",
    "state": "",
    "country": "England",
    "event": "",
    "tour": "11 O'Clock Tick Tock",
    "leg": 1,
    "venue": "University"
  },
  {
    "lat": 50.819716,
    "lng": -0.136572,
    "date": "Monday, May 26, 1980",
    "city": "Brighton",
    "state": "",
    "country": "England",
    "event": "",
    "tour": "11 O'Clock Tick Tock",
    "leg": 1,
    "venue": "New Regent"
  },
  {
    "lat": 51.513292,
    "lng": -0.120445,
    "date": "Tuesday, May 27, 1980",
    "city": "London",
    "state": "",
    "country": "England",
    "event": "",
    "tour": "11 O'Clock Tick Tock",
    "leg": 1,
    "venue": "Rock Garden"
  },
  {
    "lat": 51.451704,
    "lng": -2.578983,
    "date": "Wednesday, May 28, 1980",
    "city": "Bristol",
    "state": "",
    "country": "England",
    "event": "",
    "tour": "11 O'Clock Tick Tock",
    "leg": 1,
    "venue": "Trinity Hall"
  },
  {
    "lat": 52.482932,
    "lng": -1.893621,
    "date": "Thursday, May 29, 1980",
    "city": "Birmingham",
    "state": "",
    "country": "England",
    "event": "",
    "tour": "11 O'Clock Tick Tock",
    "leg": 1,
    "venue": "Cedar Ballroom"
  },
  {
    "lat": 51.500152,
    "lng": -0.126236,
    "date": "Friday, May 30, 1980",
    "city": "London",
    "state": "",
    "country": "England",
    "event": "",
    "tour": "11 O'Clock Tick Tock",
    "leg": 1,
    "venue": "Earl's Court Nashville Rooms"
  },
  {
    "lat": 53.47053,
    "lng": -2.23872,
    "date": "Saturday, May 31, 1980",
    "city": "Manchester",
    "state": "",
    "country": "England",
    "event": "",
    "tour": "11 O'Clock Tick Tock",
    "leg": 1,
    "venue": "Polytechnic"
  },
  {
    "lat": 52.523392,
    "lng": -1.465095,
    "date": "Monday, June 2, 1980",
    "city": "Nuneaton",
    "state": "",
    "country": "England",
    "event": "",
    "tour": "11 O'Clock Tick Tock",
    "leg": 1,
    "venue": "77 Club"
  },
  {
    "lat": 52.94104,
    "lng": -1.132793,
    "date": "Tuesday, June 3, 1980",
    "city": "Nottingham",
    "state": "",
    "country": "England",
    "event": "",
    "tour": "11 O'Clock Tick Tock",
    "leg": 1,
    "venue": "Boat Club"
  },
  {
    "lat": 53.480713,
    "lng": -2.234376,
    "date": "Wednesday, June 4, 1980",
    "city": "Manchester",
    "state": "",
    "country": "England",
    "event": "",
    "tour": "11 O'Clock Tick Tock",
    "leg": 1,
    "venue": "Beach Club"
  },
  {
    "lat": 53.799637,
    "lng": -1.54911,
    "date": "Thursday, June 5, 1980",
    "city": "Leeds",
    "state": "",
    "country": "England",
    "event": "",
    "tour": "11 O'Clock Tick Tock",
    "leg": 1,
    "venue": "Fan Club"
  },
  {
    "lat": 52.508672,
    "lng": -2.087335,
    "date": "Friday, June 6, 1980",
    "city": "Dudley",
    "state": "",
    "country": "England",
    "event": "",
    "tour": "11 O'Clock Tick Tock",
    "leg": 1,
    "venue": "JB's"
  },
  {
    "lat": 51.513353,
    "lng": -0.133926,
    "date": "Saturday, June 7, 1980",
    "city": "London",
    "state": "",
    "country": "England",
    "event": "",
    "tour": "11 O'Clock Tick Tock",
    "leg": 1,
    "venue": "Marquee Club"
  },
  {
    "lat": 51.452905,
    "lng": -0.100911,
    "date": "Sunday, June 8, 1980",
    "city": "London",
    "state": "",
    "country": "England",
    "event": "",
    "tour": "11 O'Clock Tick Tock",
    "leg": 1,
    "venue": "Half Moon Club"
  },
  {
    "lat": 53.345055,
    "lng": -6.266112,
    "date": "Tuesday, July 1, 1980",
    "city": "Dublin",
    "state": "",
    "country": "Ireland",
    "event": "",
    "tour": "11 O'Clock Tick Tock",
    "leg": 1,
    "venue": "Project Arts Centre"
  },
  {
    "lat": 51.468527,
    "lng": 0.009378,
    "date": "Thursday, July 10, 1980",
    "city": "London",
    "state": "",
    "country": "England",
    "event": "",
    "tour": "11 O'Clock Tick Tock",
    "leg": 1,
    "venue": "Clarendon Hotel"
  },
  {
    "lat": 51.452905,
    "lng": -0.100911,
    "date": "Friday, July 11, 1980",
    "city": "London",
    "state": "",
    "country": "England",
    "event": "",
    "tour": "11 O'Clock Tick Tock",
    "leg": 1,
    "venue": "Half Moon Club"
  },
  {
    "lat": 51.500152,
    "lng": -0.126236,
    "date": "Saturday, July 12, 1980",
    "city": "London",
    "state": "",
    "country": "England",
    "event": "",
    "tour": "11 O'Clock Tick Tock",
    "leg": 1,
    "venue": "Moonlight Club"
  },
  {
    "lat": 51.513353,
    "lng": -0.133926,
    "date": "Sunday, July 13, 1980",
    "city": "London",
    "state": "",
    "country": "England",
    "event": "",
    "tour": "11 O'Clock Tick Tock",
    "leg": 1,
    "venue": "Marquee Club"
  },
  {
    "lat": 53.366713,
    "lng": -6.484073,
    "date": "Sunday, July 27, 1980",
    "city": "Leixlip",
    "state": "",
    "country": "Ireland",
    "event": "",
    "tour": "11 O'Clock Tick Tock",
    "leg": 1,
    "venue": "Leixlip Castle"
  },
  {
    "lat": 53.360816,
    "lng": -6.274525,
    "date": "Monday, July 28, 1980",
    "city": "Dublin",
    "state": "",
    "country": "Ireland",
    "event": "",
    "tour": "11 O'Clock Tick Tock",
    "leg": 1,
    "venue": "Dalymount Park"
  },
  {
    "lat": 52.405838,
    "lng": -1.512661,
    "date": "Saturday, September 6, 1980",
    "city": "Coventry",
    "state": "",
    "country": "England",
    "event": "",
    "tour": "Boy",
    "leg": 1,
    "venue": "General Woolfe"
  },
  {
    "lat": 51.511556,
    "lng": -0.11975,
    "date": "Sunday, September 7, 1980",
    "city": "London",
    "state": "",
    "country": "England",
    "event": "",
    "tour": "Boy",
    "leg": 1,
    "venue": "Lyceum Ballroom"
  },
  {
    "lat": 51.513353,
    "lng": -0.133926,
    "date": "Monday, September 8, 1980",
    "city": "London",
    "state": "",
    "country": "England",
    "event": "",
    "tour": "Boy",
    "leg": 1,
    "venue": "Marquee Club"
  },
  {
    "lat": 51.455313,
    "lng": -2.591902,
    "date": "Tuesday, September 9, 1980",
    "city": "Bristol",
    "state": "",
    "country": "England",
    "event": "",
    "tour": "Boy",
    "leg": 1,
    "venue": "Berkeley"
  },
  {
    "lat": 53.753605,
    "lng": -0.348505,
    "date": "Thursday, September 11, 1980",
    "city": "Hull",
    "state": "",
    "country": "England",
    "event": "",
    "tour": "Boy",
    "leg": 1,
    "venue": "Wellington Club"
  },
  {
    "lat": 54.2773,
    "lng": -0.4017,
    "date": "Friday, September 12, 1980",
    "city": "Scarborough",
    "state": "",
    "country": "England",
    "event": "",
    "tour": "Boy",
    "leg": 1,
    "venue": "Taboo Club"
  },
  {
    "lat": 53.913597,
    "lng": -1.748627,
    "date": "Saturday, September 13, 1980",
    "city": "Leeds",
    "state": "",
    "country": "England",
    "event": "",
    "tour": "Boy",
    "leg": 1,
    "venue": "Queen's Hall"
  },
  {
    "lat": 51.513353,
    "lng": -0.133926,
    "date": "Monday, September 15, 1980",
    "city": "London",
    "state": "",
    "country": "England",
    "event": "",
    "tour": "Boy",
    "leg": 1,
    "venue": "Marquee Club"
  },
  {
    "lat": 50.370381,
    "lng": -4.142653,
    "date": "Tuesday, September 16, 1980",
    "city": "Plymouth",
    "state": "",
    "country": "England",
    "event": "",
    "tour": "Boy",
    "leg": 1,
    "venue": "Fiesta Suite"
  },
  {
    "lat": 50.118596,
    "lng": -5.537151,
    "date": "Wednesday, September 17, 1980",
    "city": "Penzance",
    "state": "",
    "country": "England",
    "event": "",
    "tour": "Boy",
    "leg": 1,
    "venue": "Demelzas"
  },
  {
    "lat": 50.431604,
    "lng": -3.689388,
    "date": "Thursday, September 18, 1980",
    "city": "Totnes",
    "state": "",
    "country": "England",
    "event": "",
    "tour": "Boy",
    "leg": 1,
    "venue": "Civic Hall"
  },
  {
    "lat": 51.008609,
    "lng": -0.968198,
    "date": "Friday, September 19, 1980",
    "city": "Stroud",
    "state": "",
    "country": "England",
    "event": "",
    "tour": "Boy",
    "leg": 1,
    "venue": "Marshall Rooms"
  },
  {
    "lat": 52.252248,
    "lng": -0.674039,
    "date": "Sunday, September 21, 1980",
    "city": "Wollaston",
    "state": "",
    "country": "England",
    "event": "",
    "tour": "Boy",
    "leg": 1,
    "venue": "Nag's Head"
  },
  {
    "lat": 51.513353,
    "lng": -0.133926,
    "date": "Monday, September 22, 1980",
    "city": "London",
    "state": "",
    "country": "England",
    "event": "",
    "tour": "Boy",
    "leg": 1,
    "venue": "Marquee Club"
  },
  {
    "lat": 51.5258,
    "lng": -0.1904,
    "date": "Monday, September 22, 1980",
    "city": "London",
    "state": "",
    "country": "England",
    "event": "",
    "tour": "Boy",
    "leg": 1,
    "venue": "Maida Vale Studios"
  },
  {
    "lat": 53.380942,
    "lng": -1.475869,
    "date": "Tuesday, September 23, 1980",
    "city": "Sheffield",
    "state": "",
    "country": "England",
    "event": "",
    "tour": "Boy",
    "leg": 1,
    "venue": "Limit Club"
  },
  {
    "lat": 52.482932,
    "lng": -1.893621,
    "date": "Wednesday, September 24, 1980",
    "city": "Birmingham",
    "state": "",
    "country": "England",
    "event": "",
    "tour": "Boy",
    "leg": 1,
    "venue": "Bogart's"
  },
  {
    "lat": 53.410777,
    "lng": -2.977838,
    "date": "Thursday, September 25, 1980",
    "city": "Liverpool",
    "state": "",
    "country": "England",
    "event": "",
    "tour": "Boy",
    "leg": 1,
    "venue": "Brady's"
  },
  {
    "lat": 52.482932,
    "lng": -1.893621,
    "date": "Friday, September 26, 1980",
    "city": "Birmingham",
    "state": "",
    "country": "England",
    "event": "",
    "tour": "Boy",
    "leg": 1,
    "venue": "Cedar Ballroom"
  },
  {
    "lat": 52.406654,
    "lng": -1.501672,
    "date": "Saturday, September 27, 1980",
    "city": "Coventry",
    "state": "",
    "country": "England",
    "event": "",
    "tour": "Boy",
    "leg": 1,
    "venue": "Polytechnic"
  },
  {
    "lat": 51.513353,
    "lng": -0.133926,
    "date": "Monday, September 29, 1980",
    "city": "London",
    "state": "",
    "country": "England",
    "event": "",
    "tour": "Boy",
    "leg": 1,
    "venue": "Marquee Club"
  },
  {
    "lat": 50.8425,
    "lng": -0.119167,
    "date": "Tuesday, September 30, 1980",
    "city": "Brighton",
    "state": "",
    "country": "England",
    "event": "",
    "tour": "Boy",
    "leg": 1,
    "venue": "Polytechnic"
  },
  {
    "lat": 53.799637,
    "lng": -1.54911,
    "date": "Thursday, October 2, 1980",
    "city": "Leeds",
    "state": "",
    "country": "England",
    "event": "",
    "tour": "Boy",
    "leg": 1,
    "venue": "Fan Club"
  },
  {
    "lat": 53.3169,
    "lng": -0.9408,
    "date": "Friday, October 3, 1980",
    "city": "Retford",
    "state": "",
    "country": "England",
    "event": "",
    "tour": "Boy",
    "leg": 1,
    "venue": "Porterhouse"
  },
  {
    "lat": 51.514,
    "lng": -0.1167,
    "date": "Saturday, October 4, 1980",
    "city": "London",
    "state": "",
    "country": "England",
    "event": "",
    "tour": "Boy",
    "leg": 1,
    "venue": "School Of Economics"
  },
  {
    "lat": 51.452905,
    "lng": -0.100911,
    "date": "Sunday, October 5, 1980",
    "city": "London",
    "state": "",
    "country": "England",
    "event": "",
    "tour": "Boy",
    "leg": 1,
    "venue": "Half Moon Club"
  },
  {
    "lat": 52.94104,
    "lng": -1.132793,
    "date": "Tuesday, October 7, 1980",
    "city": "Nottingham",
    "state": "",
    "country": "England",
    "event": "",
    "tour": "Boy",
    "leg": 1,
    "venue": "Boat Club"
  },
  {
    "lat": 53.47053,
    "lng": -2.23872,
    "date": "Thursday, October 9, 1980",
    "city": "Manchester",
    "state": "",
    "country": "England",
    "event": "",
    "tour": "Boy",
    "leg": 1,
    "venue": "Polytechnic"
  },
  {
    "lat": 51.4103,
    "lng": -0.2995,
    "date": "Saturday, October 11, 1980",
    "city": "London",
    "state": "",
    "country": "England",
    "event": "",
    "tour": "Boy",
    "leg": 1,
    "venue": "Kingston Polytechnic"
  },
  {
    "lat": 52.223991,
    "lng": 5.170999,
    "date": "Tuesday, October 14, 1980",
    "city": "Hilversum",
    "state": "",
    "country": "Netherlands",
    "event": "",
    "tour": "Boy",
    "leg": 1,
    "venue": "KRO Studios"
  },
  {
    "lat": 52.364722,
    "lng": 4.881389,
    "date": "Wednesday, October 15, 1980",
    "city": "Amsterdam",
    "state": "",
    "country": "Netherlands",
    "event": "",
    "tour": "Boy",
    "leg": 1,
    "venue": "The Milkyway"
  },
  {
    "lat": 53.214883,
    "lng": 6.567758,
    "date": "Thursday, October 16, 1980",
    "city": "Groningen",
    "state": "",
    "country": "Netherlands",
    "event": "",
    "tour": "Boy",
    "leg": 1,
    "venue": "Vera"
  },
  {
    "lat": 52.216314,
    "lng": 5.964622,
    "date": "Friday, October 17, 1980",
    "city": "Apeldoorn",
    "state": "",
    "country": "Netherlands",
    "event": "",
    "tour": "Boy",
    "leg": 1,
    "venue": "Gigant"
  },
  {
    "lat": 50.837051,
    "lng": 4.367612,
    "date": "Saturday, October 18, 1980",
    "city": "Brussels",
    "state": "",
    "country": "Belgium",
    "event": "",
    "tour": "Boy",
    "leg": 1,
    "venue": "Klacik"
  },
  {
    "lat": 51.511556,
    "lng": -0.11975,
    "date": "Sunday, October 19, 1980",
    "city": "London",
    "state": "",
    "country": "England",
    "event": "",
    "tour": "Boy",
    "leg": 1,
    "venue": "Lyceum Ballroom"
  },
  {
    "lat": 50.736509,
    "lng": -3.534422,
    "date": "Friday, November 7, 1980",
    "city": "Exeter",
    "state": "",
    "country": "England",
    "event": "",
    "tour": "Boy",
    "leg": 1,
    "venue": "University"
  },
  {
    "lat": 50.93463,
    "lng": -1.39595,
    "date": "Saturday, November 8, 1980",
    "city": "Southhampton",
    "state": "",
    "country": "England",
    "event": "",
    "tour": "Boy",
    "leg": 1,
    "venue": "University"
  },
  {
    "lat": 51.500152,
    "lng": -0.126236,
    "date": "Sunday, November 9, 1980",
    "city": "London",
    "state": "",
    "country": "England",
    "event": "",
    "tour": "Boy",
    "leg": 1,
    "venue": "Moonlight Club"
  },
  {
    "lat": 51.29911,
    "lng": 1.07148,
    "date": "Tuesday, November 11, 1980",
    "city": "Canterbury",
    "state": "",
    "country": "England",
    "event": "",
    "tour": "Boy",
    "leg": 1,
    "venue": "Kent University"
  },
  {
    "lat": 53.791667,
    "lng": -1.762222,
    "date": "Wednesday, November 12, 1980",
    "city": "Bradford",
    "state": "",
    "country": "England",
    "event": "",
    "tour": "Boy",
    "leg": 1,
    "venue": "University"
  },
  {
    "lat": 53.380942,
    "lng": -1.475869,
    "date": "Thursday, November 13, 1980",
    "city": "Sheffield",
    "state": "",
    "country": "England",
    "event": "",
    "tour": "Boy",
    "leg": 1,
    "venue": "Limit Club"
  },
  {
    "lat": 52.38606,
    "lng": -2.246896,
    "date": "Friday, November 14, 1980",
    "city": "Kidderminster",
    "state": "",
    "country": "England",
    "event": "",
    "tour": "Boy",
    "leg": 1,
    "venue": "Town Hall"
  },
  {
    "lat": 51.50021,
    "lng": -2.54749,
    "date": "Saturday, November 15, 1980",
    "city": "Bristol",
    "state": "",
    "country": "England",
    "event": "",
    "tour": "Boy",
    "leg": 1,
    "venue": "Polytechnic"
  },
  {
    "lat": 51.445069,
    "lng": -0.955725,
    "date": "Tuesday, November 18, 1980",
    "city": "Reading",
    "state": "",
    "country": "England",
    "event": "",
    "tour": "Boy",
    "leg": 1,
    "venue": "University"
  },
  {
    "lat": 52.587165,
    "lng": -2.127411,
    "date": "Wednesday, November 19, 1980",
    "city": "Wolverhampton",
    "state": "",
    "country": "England",
    "event": "",
    "tour": "Boy",
    "leg": 1,
    "venue": "Polytechnic"
  },
  {
    "lat": 53.814167,
    "lng": -3.050278,
    "date": "Thursday, November 20, 1980",
    "city": "Blackpool",
    "state": "",
    "country": "England",
    "event": "",
    "tour": "Boy",
    "leg": 1,
    "venue": "Polytechnic"
  },
  {
    "lat": 55.950176,
    "lng": -3.187536,
    "date": "Friday, November 21, 1980",
    "city": "Edinburgh",
    "state": "",
    "country": "Scotland",
    "event": "",
    "tour": "Boy",
    "leg": 1,
    "venue": "Nite Club"
  },
  {
    "lat": 53.410777,
    "lng": -2.977838,
    "date": "Saturday, November 22, 1980",
    "city": "Liverpool",
    "state": "",
    "country": "England",
    "event": "",
    "tour": "Boy",
    "leg": 1,
    "venue": "Brady's"
  },
  {
    "lat": 52.406654,
    "lng": -1.501672,
    "date": "Monday, November 24, 1980",
    "city": "Coventry",
    "state": "",
    "country": "England",
    "event": "",
    "tour": "Boy",
    "leg": 1,
    "venue": "Polytechnic"
  },
  {
    "lat": 51.513353,
    "lng": -0.133926,
    "date": "Wednesday, November 26, 1980",
    "city": "London",
    "state": "",
    "country": "England",
    "event": "",
    "tour": "Boy",
    "leg": 1,
    "venue": "Marquee Club"
  },
  {
    "lat": 53.009085,
    "lng": -2.10165,
    "date": "Wednesday, November 26, 1980",
    "city": "Hulme",
    "state": "",
    "country": "England",
    "event": "",
    "tour": "Boy",
    "leg": 1,
    "venue": "Playhouse Theatre"
  },
  {
    "lat": 51.513353,
    "lng": -0.133926,
    "date": "Thursday, November 27, 1980",
    "city": "London",
    "state": "",
    "country": "England",
    "event": "",
    "tour": "Boy",
    "leg": 1,
    "venue": "Marquee Club"
  },
  {
    "lat": 52.486,
    "lng": -1.8895,
    "date": "Friday, November 28, 1980",
    "city": "Birmingham",
    "state": "",
    "country": "England",
    "event": "",
    "tour": "Boy",
    "leg": 1,
    "venue": "Aston University"
  },
  {
    "lat": 53.003,
    "lng": -2.273,
    "date": "Saturday, November 29, 1980",
    "city": "Stoke",
    "state": "",
    "country": "England",
    "event": "",
    "tour": "Boy",
    "leg": 1,
    "venue": "Keele University"
  },
  {
    "lat": 50.819716,
    "lng": -0.136572,
    "date": "Sunday, November 30, 1980",
    "city": "Brighton",
    "state": "",
    "country": "England",
    "event": "",
    "tour": "Boy",
    "leg": 1,
    "venue": "Jenkinson's"
  },
  {
    "lat": 51.495556,
    "lng": -0.224167,
    "date": "Monday, December 1, 1980",
    "city": "London",
    "state": "",
    "country": "England",
    "event": "",
    "tour": "Boy",
    "leg": 1,
    "venue": "Hammersmith Palais"
  },
  {
    "lat": 51.495556,
    "lng": -0.224167,
    "date": "Tuesday, December 2, 1980",
    "city": "London",
    "state": "",
    "country": "England",
    "event": "",
    "tour": "Boy",
    "leg": 1,
    "venue": "Hammersmith Palais"
  },
  {
    "lat": 48.8375,
    "lng": 2.483333,
    "date": "Wednesday, December 3, 1980",
    "city": "Paris",
    "state": "",
    "country": "France",
    "event": "",
    "tour": "Boy",
    "leg": 1,
    "venue": "Baltard Pavilion"
  },
  {
    "lat": 40.7317,
    "lng": -73.9899,
    "date": "Saturday, December 6, 1980",
    "city": "New York City",
    "state": "NY",
    "country": "USA",
    "event": "",
    "tour": "Boy",
    "leg": 2,
    "venue": "The Ritz"
  },
  {
    "lat": 38.902534,
    "lng": -77.06193,
    "date": "Sunday, December 7, 1980",
    "city": "Washington",
    "state": "DC",
    "country": "USA",
    "event": "",
    "tour": "Boy",
    "leg": 2,
    "venue": "Bayou Club"
  },
  {
    "lat": 42.886875,
    "lng": -78.877875,
    "date": "Monday, December 8, 1980",
    "city": "Buffalo",
    "state": "NY",
    "country": "USA",
    "event": "",
    "tour": "Boy",
    "leg": 2,
    "venue": "Stage One"
  },
  {
    "lat": 43.657487,
    "lng": -79.400177,
    "date": "Tuesday, December 9, 1980",
    "city": "Toronto",
    "state": "ON",
    "country": "Canada",
    "event": "",
    "tour": "Boy",
    "leg": 2,
    "venue": "El Mocambo"
  },
  {
    "lat": 40.717596,
    "lng": -74.002371,
    "date": "Thursday, December 11, 1980",
    "city": "New York City",
    "state": "NY",
    "country": "USA",
    "event": "",
    "tour": "Boy",
    "leg": 2,
    "venue": "Mudd Club"
  },
  {
    "lat": 41.4832,
    "lng": -71.3083,
    "date": "Friday, December 12, 1980",
    "city": "Providence",
    "state": "RI",
    "country": "USA",
    "event": "",
    "tour": "Boy",
    "leg": 2,
    "venue": "Main Event"
  },
  {
    "lat": 42.35197,
    "lng": -71.119381,
    "date": "Saturday, December 13, 1980",
    "city": "Boston",
    "state": "MA",
    "country": "USA",
    "event": "",
    "tour": "Boy",
    "leg": 2,
    "venue": "The Paradise"
  },
  {
    "lat": 41.311488,
    "lng": -72.929511,
    "date": "Sunday, December 14, 1980",
    "city": "New Haven",
    "state": "CT",
    "country": "USA",
    "event": "",
    "tour": "Boy",
    "leg": 2,
    "venue": "Toad's Place"
  },
  {
    "lat": 39.951639,
    "lng": -75.163808,
    "date": "Monday, December 15, 1980",
    "city": "Philadelphia",
    "state": "PA",
    "country": "USA",
    "event": "",
    "tour": "Boy",
    "leg": 2,
    "venue": "Bijou Cafe"
  },
  {
    "lat": 54.594306,
    "lng": -5.930833,
    "date": "Wednesday, December 17, 1980",
    "city": "Belfast",
    "state": "",
    "country": "Northern Ireland",
    "event": "",
    "tour": "Boy",
    "leg": 2,
    "venue": "Ulster Hall"
  },
  {
    "lat": 53.25906,
    "lng": -9.082217,
    "date": "Thursday, December 18, 1980",
    "city": "Galway",
    "state": "",
    "country": "Ireland",
    "event": "",
    "tour": "Boy",
    "leg": 2,
    "venue": "Leisureland"
  },
  {
    "lat": 54.2667,
    "lng": -8.4833,
    "date": "Friday, December 19, 1980",
    "city": "Sligo",
    "state": "",
    "country": "Ireland",
    "event": "",
    "tour": "Boy",
    "leg": 2,
    "venue": "Baymount"
  },
  {
    "lat": 51.897866,
    "lng": -8.471094,
    "date": "Saturday, December 20, 1980",
    "city": "Cork",
    "state": "",
    "country": "Ireland",
    "event": "",
    "tour": "Boy",
    "leg": 2,
    "venue": "Downtown Kampus"
  },
  {
    "lat": 53.344104,
    "lng": -6.267494,
    "date": "Monday, December 22, 1980",
    "city": "Dublin",
    "state": "",
    "country": "Ireland",
    "event": "",
    "tour": "Boy",
    "leg": 2,
    "venue": "TV Club"
  },
  {
    "lat": 54.580683,
    "lng": -5.930284,
    "date": "Friday, January 23, 1981",
    "city": "Belfast",
    "state": "",
    "country": "Northern Ireland",
    "event": "",
    "tour": "Boy",
    "leg": 2,
    "venue": "Queen's University"
  },
  {
    "lat": 55.8648,
    "lng": -4.2446,
    "date": "Saturday, January 24, 1981",
    "city": "Glasgow",
    "state": "",
    "country": "Scotland",
    "event": "",
    "tour": "Boy",
    "leg": 2,
    "venue": "Strathclyde University"
  },
  {
    "lat": 55.950176,
    "lng": -3.187536,
    "date": "Sunday, January 25, 1981",
    "city": "Edinburgh",
    "state": "",
    "country": "Scotland",
    "event": "",
    "tour": "Boy",
    "leg": 2,
    "venue": "Valentino's Club"
  },
  {
    "lat": 53.9456,
    "lng": -1.0579,
    "date": "Monday, January 26, 1981",
    "city": "York",
    "state": "",
    "country": "England",
    "event": "",
    "tour": "Boy",
    "leg": 2,
    "venue": "University"
  },
  {
    "lat": 53.47053,
    "lng": -2.23872,
    "date": "Tuesday, January 27, 1981",
    "city": "Manchester",
    "state": "",
    "country": "England",
    "event": "",
    "tour": "Boy",
    "leg": 2,
    "venue": "Polytechnic"
  },
  {
    "lat": 52.621667,
    "lng": 1.241667,
    "date": "Wednesday, January 28, 1981",
    "city": "Norwich",
    "state": "",
    "country": "England",
    "event": "",
    "tour": "Boy",
    "leg": 2,
    "venue": "University of East Anglia"
  },
  {
    "lat": 52.236874,
    "lng": -0.897391,
    "date": "Thursday, January 29, 1981",
    "city": "Northampton",
    "state": "",
    "country": "England",
    "event": "",
    "tour": "Boy",
    "leg": 2,
    "venue": "Iron Horse"
  },
  {
    "lat": 52.766173,
    "lng": -1.220583,
    "date": "Friday, January 30, 1981",
    "city": "Loughborough",
    "state": "",
    "country": "England",
    "event": "",
    "tour": "Boy",
    "leg": 2,
    "venue": "Loughborough University"
  },
  {
    "lat": 51.755,
    "lng": -0.336,
    "date": "Saturday, January 31, 1981",
    "city": "St. Albans",
    "state": "",
    "country": "England",
    "event": "",
    "tour": "Boy",
    "leg": 2,
    "venue": "City Hall"
  },
  {
    "lat": 51.511556,
    "lng": -0.11975,
    "date": "Sunday, February 1, 1981",
    "city": "London",
    "state": "",
    "country": "England",
    "event": "",
    "tour": "Boy",
    "leg": 2,
    "venue": "Lyceum Ballroom"
  },
  {
    "lat": 59.332788,
    "lng": 18.064488,
    "date": "Monday, February 9, 1981",
    "city": "Stockholm",
    "state": "",
    "country": "Sweden",
    "event": "",
    "tour": "Boy",
    "leg": 2,
    "venue": "Swedish TV 'Mandagsborsen'"
  },
  {
    "lat": 59.332788,
    "lng": 18.064488,
    "date": "Monday, February 9, 1981",
    "city": "Stockholm",
    "state": "",
    "country": "Sweden",
    "event": "",
    "tour": "Boy",
    "leg": 2,
    "venue": "Underground"
  },
  {
    "lat": 50.848671,
    "lng": 4.348706,
    "date": "Tuesday, February 10, 1981",
    "city": "Brussels",
    "state": "",
    "country": "Belgium",
    "event": "",
    "tour": "Boy",
    "leg": 2,
    "venue": "Beursschouwburg"
  },
  {
    "lat": 52.362222,
    "lng": 4.883889,
    "date": "Wednesday, February 11, 1981",
    "city": "Amsterdam",
    "state": "",
    "country": "Netherlands",
    "event": "",
    "tour": "Boy",
    "leg": 2,
    "venue": "Paradiso"
  },
  {
    "lat": 52.078289,
    "lng": 4.313685,
    "date": "Thursday, February 12, 1981",
    "city": "Den Hague",
    "state": "",
    "country": "Netherlands",
    "event": "",
    "tour": "Boy",
    "leg": 2,
    "venue": "Paard Van Troje"
  },
  {
    "lat": 52.391178,
    "lng": 6.448919,
    "date": "Friday, February 13, 1981",
    "city": "Rotterdam",
    "state": "",
    "country": "Netherlands",
    "event": "",
    "tour": "Boy",
    "leg": 2,
    "venue": "De Lantaarn"
  },
  {
    "lat": 52.363889,
    "lng": 4.881944,
    "date": "Saturday, February 14, 1981",
    "city": "Sittard",
    "state": "",
    "country": "Netherlands",
    "event": "",
    "tour": "Boy",
    "leg": 2,
    "venue": "Stadsschouwburg"
  },
  {
    "lat": 53.553407,
    "lng": 9.992196,
    "date": "Sunday, February 15, 1981",
    "city": "Hamburg",
    "state": "",
    "country": "Germany",
    "event": "",
    "tour": "Boy",
    "leg": 2,
    "venue": "Onkel Po's Carnegie Hall"
  },
  {
    "lat": 52.523405,
    "lng": 13.4114,
    "date": "Tuesday, February 17, 1981",
    "city": "Berlin",
    "state": "",
    "country": "Germany",
    "event": "",
    "tour": "Boy",
    "leg": 2,
    "venue": "Kantkino"
  },
  {
    "lat": 48.1375,
    "lng": 11.5686,
    "date": "Wednesday, February 18, 1981",
    "city": "Munich",
    "state": "",
    "country": "Germany",
    "event": "",
    "tour": "Boy",
    "leg": 2,
    "venue": "Sugar Shack"
  },
  {
    "lat": 46.206057,
    "lng": 6.140232,
    "date": "Thursday, February 19, 1981",
    "city": "Geneva",
    "state": "",
    "country": "Switzerland",
    "event": "",
    "tour": "Boy",
    "leg": 2,
    "venue": "Salle Du Fauburg"
  },
  {
    "lat": 48.856667,
    "lng": 2.350987,
    "date": "Friday, February 20, 1981",
    "city": "Paris",
    "state": "",
    "country": "France",
    "event": "",
    "tour": "Boy",
    "leg": 2,
    "venue": "Ecole National Des Travaux"
  },
  {
    "lat": 48.871881,
    "lng": 2.34376,
    "date": "Saturday, February 21, 1981",
    "city": "Paris",
    "state": "",
    "country": "France",
    "event": "",
    "tour": "Boy",
    "leg": 2,
    "venue": "Le Palace"
  },
  {
    "lat": 51.500152,
    "lng": -0.126236,
    "date": "Saturday, February 28, 1981",
    "city": "London",
    "state": "",
    "country": "England",
    "event": "",
    "tour": "Boy",
    "leg": 2,
    "venue": "UK TV 'Old Grey Whistle"
  },
  {
    "lat": 38.902534,
    "lng": -77.06193,
    "date": "Tuesday, March 3, 1981",
    "city": "Washington",
    "state": "DC",
    "country": "USA",
    "event": "",
    "tour": "Boy",
    "leg": 3,
    "venue": "Bayou Club"
  },
  {
    "lat": 39.951639,
    "lng": -75.163808,
    "date": "Wednesday, March 4, 1981",
    "city": "Philadelphia",
    "state": "PA",
    "country": "USA",
    "event": "",
    "tour": "Boy",
    "leg": 3,
    "venue": "Bijou Cafe"
  },
  {
    "lat": 42.651725,
    "lng": -73.755093,
    "date": "Thursday, March 5, 1981",
    "city": "Albany",
    "state": "NY",
    "country": "USA",
    "event": "",
    "tour": "Boy",
    "leg": 3,
    "venue": "J.B. Scott's"
  },
  {
    "lat": 42.35197,
    "lng": -71.119381,
    "date": "Friday, March 6, 1981",
    "city": "Boston",
    "state": "MA",
    "country": "USA",
    "event": "",
    "tour": "Boy",
    "leg": 3,
    "venue": "The Paradise"
  },
  {
    "lat": 40.7317,
    "lng": -73.9899,
    "date": "Saturday, March 7, 1981",
    "city": "New York City",
    "state": "NY",
    "country": "USA",
    "event": "",
    "tour": "Boy",
    "leg": 3,
    "venue": "The 0"
  },
  {
    "lat": 45.510562,
    "lng": -73.563189,
    "date": "Monday, March 9, 1981",
    "city": "Montreal",
    "state": "PQ",
    "country": "Canada",
    "event": "",
    "tour": "Boy",
    "leg": 3,
    "venue": "Le Club (now called the Spectrum)"
  },
  {
    "lat": 45.423494,
    "lng": -75.697933,
    "date": "Tuesday, March 10, 1981",
    "city": "Ottawa",
    "state": "ON",
    "country": "Canada",
    "event": "",
    "tour": "Boy",
    "leg": 3,
    "venue": "Barrymore's"
  },
  {
    "lat": 43.662222,
    "lng": -79.380278,
    "date": "Wednesday, March 11, 1981",
    "city": "Toronto",
    "state": "ON",
    "country": "Canada",
    "event": "",
    "tour": "Boy",
    "leg": 3,
    "venue": "Maple Leaf Ballroom"
  },
  {
    "lat": 32.7322,
    "lng": -117.1522,
    "date": "Saturday, March 14, 1981",
    "city": "San Diego",
    "state": "CA",
    "country": "USA",
    "event": "",
    "tour": "Boy",
    "leg": 3,
    "venue": "Globe Theater"
  },
  {
    "lat": 34.20111,
    "lng": -118.53556,
    "date": "Sunday, March 15, 1981",
    "city": "Reseda",
    "state": "CA",
    "country": "USA",
    "event": "",
    "tour": "Boy",
    "leg": 3,
    "venue": "Reseda Country Club"
  },
  {
    "lat": 33.834268,
    "lng": -117.919434,
    "date": "Monday, March 16, 1981",
    "city": "Anaheim",
    "state": "CA",
    "country": "USA",
    "event": "",
    "tour": "Boy",
    "leg": 3,
    "venue": "Woodstock"
  },
  {
    "lat": 37.335556,
    "lng": -121.881111,
    "date": "Wednesday, March 18, 1981",
    "city": "San Jose",
    "state": "CA",
    "country": "USA",
    "event": "",
    "tour": "Boy",
    "leg": 3,
    "venue": "San Jose State College"
  },
  {
    "lat": 37.795521,
    "lng": -122.399957,
    "date": "Thursday, March 19, 1981",
    "city": "San Francisco",
    "state": "CA",
    "country": "USA",
    "event": "",
    "tour": "Boy",
    "leg": 3,
    "venue": "The Old Waldorf"
  },
  {
    "lat": 37.795521,
    "lng": -122.399957,
    "date": "Friday, March 20, 1981",
    "city": "San Francisco",
    "state": "CA",
    "country": "USA",
    "event": "",
    "tour": "Boy",
    "leg": 3,
    "venue": "The Old Waldorf"
  },
  {
    "lat": 45.52,
    "lng": -122.681944,
    "date": "Sunday, March 22, 1981",
    "city": "Portland",
    "state": "OR",
    "country": "USA",
    "event": "",
    "tour": "Boy",
    "leg": 3,
    "venue": "Foghorn"
  },
  {
    "lat": 47.6139,
    "lng": -122.3417,
    "date": "Monday, March 23, 1981",
    "city": "Seattle",
    "state": "WA",
    "country": "USA",
    "event": "",
    "tour": "Boy",
    "leg": 3,
    "venue": "Astor Park"
  },
  {
    "lat": 49.280625,
    "lng": -123.12094,
    "date": "Tuesday, March 24, 1981",
    "city": "Vancouver",
    "state": "BC",
    "country": "Canada",
    "event": "",
    "tour": "Boy",
    "leg": 3,
    "venue": "Commodore Ballroom"
  },
  {
    "lat": 40.771592,
    "lng": -111.888189,
    "date": "Thursday, March 26, 1981",
    "city": "Salt Lake City",
    "state": "UT",
    "country": "USA",
    "event": "",
    "tour": "Boy",
    "leg": 3,
    "venue": "New Faces Club"
  },
  {
    "lat": 39.755092,
    "lng": -104.988123,
    "date": "Saturday, March 28, 1981",
    "city": "Denver",
    "state": "CO",
    "country": "USA",
    "event": "",
    "tour": "Boy",
    "leg": 3,
    "venue": "Rainbow Music Hall"
  },
  {
    "lat": 33.563315,
    "lng": -101.876606,
    "date": "Monday, March 30, 1981",
    "city": "Lubbock",
    "state": "TX",
    "country": "USA",
    "event": "",
    "tour": "Boy",
    "leg": 3,
    "venue": "The Rox"
  },
  {
    "lat": 30.265818,
    "lng": -97.742176,
    "date": "Tuesday, March 31, 1981",
    "city": "Austin",
    "state": "TX",
    "country": "USA",
    "event": "",
    "tour": "Boy",
    "leg": 3,
    "venue": "The Club Foot"
  },
  {
    "lat": 29.6756,
    "lng": -95.5397,
    "date": "Wednesday, April 1, 1981",
    "city": "Houston",
    "state": "TX",
    "country": "USA",
    "event": "",
    "tour": "Boy",
    "leg": 3,
    "venue": "Cardi's"
  },
  {
    "lat": 32.8573,
    "lng": -96.7534,
    "date": "Thursday, April 2, 1981",
    "city": "Dallas",
    "state": "TX",
    "country": "USA",
    "event": "",
    "tour": "Boy",
    "leg": 3,
    "venue": "Bijou"
  },
  {
    "lat": 35.493138,
    "lng": -97.459141,
    "date": "Friday, April 3, 1981",
    "city": "Oklahoma City",
    "state": "OK",
    "country": "USA",
    "event": "",
    "tour": "Boy",
    "leg": 3,
    "venue": "Quicksilver's"
  },
  {
    "lat": 36.160876,
    "lng": -95.995009,
    "date": "Saturday, April 4, 1981",
    "city": "Tulsa",
    "state": "OK",
    "country": "USA",
    "event": "",
    "tour": "Boy",
    "leg": 3,
    "venue": "Cain's Ballroom"
  },
  {
    "lat": 39.061111,
    "lng": -94.590833,
    "date": "Monday, April 6, 1981",
    "city": "Kansas City",
    "state": "MO",
    "country": "USA",
    "event": "",
    "tour": "Boy",
    "leg": 3,
    "venue": "Uptown Theater"
  },
  {
    "lat": 38.648662,
    "lng": -90.305643,
    "date": "Tuesday, April 7, 1981",
    "city": "St. Louis",
    "state": "MO",
    "country": "USA",
    "event": "",
    "tour": "Boy",
    "leg": 3,
    "venue": "Graham Chapel Washington University"
  },
  {
    "lat": 44.977482,
    "lng": -93.264351,
    "date": "Thursday, April 9, 1981",
    "city": "Minneapolis",
    "state": "MN",
    "country": "USA",
    "event": "",
    "tour": "Boy",
    "leg": 3,
    "venue": "Uncle Sam's"
  },
  {
    "lat": 42.0249,
    "lng": -93.6155,
    "date": "Friday, April 10, 1981",
    "city": "Ames",
    "state": "IA",
    "country": "USA",
    "event": "",
    "tour": "Boy",
    "leg": 3,
    "venue": "Fillmore"
  },
  {
    "lat": 41.879535,
    "lng": -87.624333,
    "date": "Saturday, April 11, 1981",
    "city": "Chicago",
    "state": "IL",
    "country": "USA",
    "event": "",
    "tour": "Boy",
    "leg": 3,
    "venue": "International House - U. of"
  },
  {
    "lat": 41.918611,
    "lng": -87.637443,
    "date": "Sunday, April 12, 1981",
    "city": "Chicago",
    "state": "IL",
    "country": "USA",
    "event": "",
    "tour": "Boy",
    "leg": 3,
    "venue": "Park West"
  },
  {
    "lat": 43.062071,
    "lng": -89.400846,
    "date": "Tuesday, April 14, 1981",
    "city": "Madison",
    "state": "WI",
    "country": "USA",
    "event": "",
    "tour": "Boy",
    "leg": 3,
    "venue": "Merling's"
  },
  {
    "lat": 43.040182,
    "lng": -87.91448,
    "date": "Wednesday, April 15, 1981",
    "city": "Milwaukee",
    "state": "WI",
    "country": "USA",
    "event": "",
    "tour": "Boy",
    "leg": 3,
    "venue": "Palm's"
  },
  {
    "lat": 39.099233,
    "lng": -84.517486,
    "date": "Friday, April 17, 1981",
    "city": "Cincinnati",
    "state": "OH",
    "country": "USA",
    "event": "",
    "tour": "Boy",
    "leg": 3,
    "venue": "Bogart's Club"
  },
  {
    "lat": 42.4038,
    "lng": -82.9666,
    "date": "Saturday, April 18, 1981",
    "city": "Detroit",
    "state": "MI",
    "country": "USA",
    "event": "",
    "tour": "Boy",
    "leg": 3,
    "venue": "Harpo's"
  },
  {
    "lat": 41.504039,
    "lng": -81.653799,
    "date": "Sunday, April 19, 1981",
    "city": "Columbus",
    "state": "OH",
    "country": "USA",
    "event": "",
    "tour": "Boy",
    "leg": 3,
    "venue": "The Agora"
  },
  {
    "lat": 41.503735,
    "lng": -81.653947,
    "date": "Monday, April 20, 1981",
    "city": "Cleveland",
    "state": "OH",
    "country": "USA",
    "event": "",
    "tour": "Boy",
    "leg": 3,
    "venue": "The Agora"
  },
  {
    "lat": 40.438423,
    "lng": -80.001933,
    "date": "Tuesday, April 21, 1981",
    "city": "Pittsburgh",
    "state": "PA",
    "country": "USA",
    "event": "",
    "tour": "Boy",
    "leg": 3,
    "venue": "The Decade"
  },
  {
    "lat": 29.65207,
    "lng": -82.339342,
    "date": "Saturday, May 2, 1981",
    "city": "Gainesville",
    "state": "FL",
    "country": "USA",
    "event": "",
    "tour": "Boy",
    "leg": 3,
    "venue": "Rathskeller Hall"
  },
  {
    "lat": 27.98141,
    "lng": -82.451141,
    "date": "Sunday, May 3, 1981",
    "city": "Tampa",
    "state": "FL",
    "country": "USA",
    "event": "",
    "tour": "Boy",
    "leg": 3,
    "venue": "End Zone"
  },
  {
    "lat": 25.985894,
    "lng": -80.163572,
    "date": "Monday, May 4, 1981",
    "city": "Hallendale",
    "state": "FL",
    "country": "USA",
    "event": "",
    "tour": "Boy",
    "leg": 3,
    "venue": "The Agora"
  },
  {
    "lat": 33.773185,
    "lng": -84.38457,
    "date": "Wednesday, May 6, 1981",
    "city": "Atlanta",
    "state": "GA",
    "country": "USA",
    "event": "",
    "tour": "Boy",
    "leg": 3,
    "venue": "The Agora"
  },
  {
    "lat": 29.953238,
    "lng": -90.069003,
    "date": "Friday, May 8, 1981",
    "city": "New Orleans",
    "state": "LA",
    "country": "USA",
    "event": "",
    "tour": "Boy",
    "leg": 3,
    "venue": "Ol' Man River's"
  },
  {
    "lat": 35.142727,
    "lng": -90.042572,
    "date": "Saturday, May 9, 1981",
    "city": "Memphis",
    "state": "TN",
    "country": "USA",
    "event": "",
    "tour": "Boy",
    "leg": 3,
    "venue": "Poets"
  },
  {
    "lat": 39.755092,
    "lng": -104.988123,
    "date": "Monday, May 11, 1981",
    "city": "Denver",
    "state": "CO",
    "country": "USA",
    "event": "",
    "tour": "Boy",
    "leg": 3,
    "venue": "Rainbow Music Hall"
  },
  {
    "lat": 34.008889,
    "lng": -118.489167,
    "date": "Wednesday, May 13, 1981",
    "city": "Santa Monica",
    "state": "CA",
    "country": "USA",
    "event": "",
    "tour": "Boy",
    "leg": 3,
    "venue": "Santa Monica Civic Center"
  },
  {
    "lat": 37.782606,
    "lng": -122.419082,
    "date": "Friday, May 15, 1981",
    "city": "San Francisco",
    "state": "CA",
    "country": "USA",
    "event": "",
    "tour": "Boy",
    "leg": 3,
    "venue": "California Hall"
  },
  {
    "lat": 43.6575,
    "lng": -79.3793,
    "date": "Tuesday, May 19, 1981",
    "city": "Toronto",
    "state": "ON",
    "country": "Canada",
    "event": "",
    "tour": "Boy",
    "leg": 3,
    "venue": "Ryerson Theater"
  },
  {
    "lat": 43.165556,
    "lng": -77.611389,
    "date": "Wednesday, May 20, 1981",
    "city": "Rochester",
    "state": "NY",
    "country": "USA",
    "event": "",
    "tour": "Boy",
    "leg": 3,
    "venue": "Red Creek"
  },
  {
    "lat": 42.8756,
    "lng": -78.8526,
    "date": "Thursday, May 21, 1981",
    "city": "Buffalo",
    "state": "NY",
    "country": "USA",
    "event": "",
    "tour": "Boy",
    "leg": 3,
    "venue": "Uncle Sam's"
  },
  {
    "lat": 43.050831,
    "lng": -76.147375,
    "date": "Friday, May 22, 1981",
    "city": "Syracuse",
    "state": "NY",
    "country": "USA",
    "event": "",
    "tour": "Boy",
    "leg": 3,
    "venue": "City Limits"
  },
  {
    "lat": 42.651725,
    "lng": -73.755093,
    "date": "Saturday, May 23, 1981",
    "city": "Albany",
    "state": "NY",
    "country": "USA",
    "event": "",
    "tour": "Boy",
    "leg": 3,
    "venue": "J.B. Scott's"
  },
  {
    "lat": 42.906862,
    "lng": -70.811466,
    "date": "Sunday, May 24, 1981",
    "city": "Hampton Beach",
    "state": "NH",
    "country": "USA",
    "event": "",
    "tour": "Boy",
    "leg": 3,
    "venue": "Club Casino"
  },
  {
    "lat": 41.7272,
    "lng": -71.1586,
    "date": "Monday, May 25, 1981",
    "city": "Providence",
    "state": "RI",
    "country": "USA",
    "event": "",
    "tour": "Boy",
    "leg": 3,
    "venue": "Center Stage"
  },
  {
    "lat": 41.311488,
    "lng": -72.929511,
    "date": "Wednesday, May 27, 1981",
    "city": "New Haven",
    "state": "CT",
    "country": "USA",
    "event": "",
    "tour": "Boy",
    "leg": 3,
    "venue": "Toad's Place"
  },
  {
    "lat": 42.347231,
    "lng": -71.094981,
    "date": "Thursday, May 28, 1981",
    "city": "Boston",
    "state": "MA",
    "country": "USA",
    "event": "",
    "tour": "Boy",
    "leg": 3,
    "venue": "The Metro"
  },
  {
    "lat": 40.7634,
    "lng": -73.9828,
    "date": "Friday, May 29, 1981",
    "city": "New York City",
    "state": "NY",
    "country": "USA",
    "event": "",
    "tour": "Boy",
    "leg": 3,
    "venue": "Palladium"
  },
  {
    "lat": 52.621667,
    "lng": 1.241667,
    "date": "Thursday, October 1, 1981",
    "city": "Norwich",
    "state": "",
    "country": "England",
    "event": "",
    "tour": "October",
    "leg": 1,
    "venue": "University of East Anglia"
  },
  {
    "lat": 52.955108,
    "lng": -1.14931,
    "date": "Friday, October 2, 1981",
    "city": "Nottingham",
    "state": "",
    "country": "England",
    "event": "",
    "tour": "October",
    "leg": 1,
    "venue": "Rock City"
  },
  {
    "lat": 53.484444,
    "lng": -2.271389,
    "date": "Saturday, October 3, 1981",
    "city": "Salford",
    "state": "",
    "country": "England",
    "event": "",
    "tour": "October",
    "leg": 1,
    "venue": "University"
  },
  {
    "lat": 55.86,
    "lng": -4.2594,
    "date": "Sunday, October 4, 1981",
    "city": "Glasgow",
    "state": "",
    "country": "Scotland",
    "event": "",
    "tour": "October",
    "leg": 1,
    "venue": "Tiffany's"
  },
  {
    "lat": 52.380081,
    "lng": -1.561931,
    "date": "Tuesday, October 6, 1981",
    "city": "Coventry",
    "state": "",
    "country": "England",
    "event": "",
    "tour": "October",
    "leg": 1,
    "venue": "Warwick University"
  },
  {
    "lat": 52.63457,
    "lng": -1.129443,
    "date": "Wednesday, October 7, 1981",
    "city": "Leicester",
    "state": "",
    "country": "England",
    "event": "",
    "tour": "October",
    "leg": 1,
    "venue": "Polytechnic"
  },
  {
    "lat": 53.380469,
    "lng": -1.466586,
    "date": "Thursday, October 8, 1981",
    "city": "Sheffield",
    "state": "",
    "country": "England",
    "event": "",
    "tour": "October",
    "leg": 1,
    "venue": "Lyceum"
  },
  {
    "lat": 54.97784,
    "lng": -1.612916,
    "date": "Friday, October 9, 1981",
    "city": "Newcastle",
    "state": "",
    "country": "England",
    "event": "",
    "tour": "October",
    "leg": 1,
    "venue": "Mayfair"
  },
  {
    "lat": 53.407416,
    "lng": -2.982524,
    "date": "Saturday, October 10, 1981",
    "city": "Liverpool",
    "state": "",
    "country": "England",
    "event": "",
    "tour": "October",
    "leg": 1,
    "venue": "Royal Court Theater"
  },
  {
    "lat": 50.819716,
    "lng": -0.136572,
    "date": "Monday, October 12, 1981",
    "city": "Brighton",
    "state": "",
    "country": "England",
    "event": "",
    "tour": "October",
    "leg": 1,
    "venue": "Top Rank"
  },
  {
    "lat": 50.816667,
    "lng": -1.083333,
    "date": "Tuesday, October 13, 1981",
    "city": "Portsmouth",
    "state": "",
    "country": "England",
    "event": "",
    "tour": "October",
    "leg": 1,
    "venue": "Locarno"
  },
  {
    "lat": 51.481307,
    "lng": -3.180498,
    "date": "Wednesday, October 14, 1981",
    "city": "Cardiff",
    "state": "",
    "country": "Wales",
    "event": "",
    "tour": "October",
    "leg": 1,
    "venue": "Top Rank"
  },
  {
    "lat": 51.51909,
    "lng": -0.144126,
    "date": "Wednesday, October 14, 1981",
    "city": "London",
    "state": "",
    "country": "England",
    "event": "",
    "tour": "October",
    "leg": 1,
    "venue": "BBC Radio Session"
  },
  {
    "lat": 53.003438,
    "lng": -2.217335,
    "date": "Friday, October 16, 1981",
    "city": "Stoke",
    "state": "",
    "country": "England",
    "event": "",
    "tour": "October",
    "leg": 1,
    "venue": "King's Hall"
  },
  {
    "lat": 51.40132,
    "lng": -0.745851,
    "date": "Saturday, October 17, 1981",
    "city": "Bracknell",
    "state": "",
    "country": "England",
    "event": "",
    "tour": "October",
    "leg": 1,
    "venue": "Sports Centre"
  },
  {
    "lat": 51.455313,
    "lng": -2.591902,
    "date": "Sunday, October 18, 1981",
    "city": "Bristol",
    "state": "",
    "country": "England",
    "event": "",
    "tour": "October",
    "leg": 1,
    "venue": "Locarno"
  },
  {
    "lat": 52.482932,
    "lng": -1.893621,
    "date": "Monday, October 19, 1981",
    "city": "Birmingham",
    "state": "",
    "country": "England",
    "event": "",
    "tour": "October",
    "leg": 1,
    "venue": "Locarno"
  },
  {
    "lat": 53.799637,
    "lng": -1.54911,
    "date": "Tuesday, October 20, 1981",
    "city": "Leeds",
    "state": "",
    "country": "England",
    "event": "",
    "tour": "October",
    "leg": 1,
    "venue": "Tiffany's"
  },
  {
    "lat": 52.889563,
    "lng": 1.127601,
    "date": "Wednesday, October 21, 1981",
    "city": "Hempstead",
    "state": "",
    "country": "England",
    "event": "",
    "tour": "October",
    "leg": 1,
    "venue": "Pavilion Hemel"
  },
  {
    "lat": 50.837051,
    "lng": 4.367612,
    "date": "Friday, October 23, 1981",
    "city": "Brussels",
    "state": "",
    "country": "Belgium",
    "event": "",
    "tour": "October",
    "leg": 1,
    "venue": "Ancienne Belgique"
  },
  {
    "lat": 50.979466,
    "lng": 3.525555,
    "date": "Saturday, October 24, 1981",
    "city": "Deinze",
    "state": "",
    "country": "Belgium",
    "event": "",
    "tour": "October",
    "leg": 1,
    "venue": "Brielpoort"
  },
  {
    "lat": 51.139791,
    "lng": 4.755221,
    "date": "Sunday, October 25, 1981",
    "city": "Herenthout",
    "state": "",
    "country": "Belgium",
    "event": "",
    "tour": "October",
    "leg": 1,
    "venue": "Zaal Lux"
  },
  {
    "lat": 48.856667,
    "lng": 2.350987,
    "date": "Monday, October 26, 1981",
    "city": "Paris",
    "state": "",
    "country": "France",
    "event": "",
    "tour": "October",
    "leg": 1,
    "venue": "Elysee Montmartre"
  },
  {
    "lat": 52.15942,
    "lng": 4.488516,
    "date": "Wednesday, October 28, 1981",
    "city": "Leiden",
    "state": "",
    "country": "Netherlands",
    "event": "",
    "tour": "October",
    "leg": 1,
    "venue": "Stadsgehoorzaal"
  },
  {
    "lat": 51.558864,
    "lng": 5.082427,
    "date": "Thursday, October 29, 1981",
    "city": "Tilburg",
    "state": "",
    "country": "Netherlands",
    "event": "",
    "tour": "October",
    "leg": 1,
    "venue": "De Harmonie"
  },
  {
    "lat": 52.362222,
    "lng": 4.883889,
    "date": "Friday, October 30, 1981",
    "city": "Amsterdam",
    "state": "",
    "country": "Netherlands",
    "event": "",
    "tour": "October",
    "leg": 1,
    "venue": "Paradiso"
  },
  {
    "lat": 51.97973,
    "lng": 5.912403,
    "date": "Saturday, October 31, 1981",
    "city": "Arnhem",
    "state": "",
    "country": "Netherlands",
    "event": "",
    "tour": "October",
    "leg": 1,
    "venue": "Stokvishal"
  },
  {
    "lat": 52.391178,
    "lng": 6.448919,
    "date": "Sunday, November 1, 1981",
    "city": "Rotterdam",
    "state": "",
    "country": "Netherlands",
    "event": "",
    "tour": "October",
    "leg": 1,
    "venue": "De Lantaarn"
  },
  {
    "lat": 53.553407,
    "lng": 9.992196,
    "date": "Tuesday, November 3, 1981",
    "city": "Hamburg",
    "state": "",
    "country": "West Germany",
    "event": "",
    "tour": "October",
    "leg": 1,
    "venue": "Fabrik"
  },
  {
    "lat": 52.523405,
    "lng": 13.4114,
    "date": "Wednesday, November 4, 1981",
    "city": "Berlin",
    "state": "",
    "country": "West Germany",
    "event": "",
    "tour": "October",
    "leg": 1,
    "venue": "Metropol"
  },
  {
    "lat": 42.651725,
    "lng": -73.755093,
    "date": "Friday, November 13, 1981",
    "city": "Albany",
    "state": "NY",
    "country": "USA",
    "event": "",
    "tour": "October",
    "leg": 2,
    "venue": "J.B. Scott's"
  },
  {
    "lat": 42.3563,
    "lng": -71.061,
    "date": "Saturday, November 14, 1981",
    "city": "Boston",
    "state": "MA",
    "country": "USA",
    "event": "",
    "tour": "October",
    "leg": 2,
    "venue": "Orpheum"
  },
  {
    "lat": 41.311488,
    "lng": -72.929511,
    "date": "Sunday, November 15, 1981",
    "city": "New Haven",
    "state": "CT",
    "country": "USA",
    "event": "",
    "tour": "October",
    "leg": 2,
    "venue": "Toad's Place"
  },
  {
    "lat": 41.7272,
    "lng": -71.1586,
    "date": "Tuesday, November 17, 1981",
    "city": "Providence",
    "state": "RI",
    "country": "USA",
    "event": "",
    "tour": "October",
    "leg": 2,
    "venue": "Center Stage"
  },
  {
    "lat": 40.075464,
    "lng": -75.033467,
    "date": "Wednesday, November 18, 1981",
    "city": "Philadelphia",
    "state": "PA",
    "country": "USA",
    "event": "",
    "tour": "October",
    "leg": 2,
    "venue": "Ripley's Music Hall"
  },
  {
    "lat": 40.7317,
    "lng": -73.9899,
    "date": "Friday, November 20, 1981",
    "city": "New York City",
    "state": "NY",
    "country": "USA",
    "event": "",
    "tour": "October",
    "leg": 2,
    "venue": "The Ritz"
  },
  {
    "lat": 40.7317,
    "lng": -73.9899,
    "date": "Saturday, November 21, 1981",
    "city": "New York City",
    "state": "NY",
    "country": "USA",
    "event": "",
    "tour": "October",
    "leg": 2,
    "venue": "The Ritz"
  },
  {
    "lat": 40.7317,
    "lng": -73.9899,
    "date": "Sunday, November 22, 1981",
    "city": "New York City",
    "state": "NY",
    "country": "USA",
    "event": "",
    "tour": "October",
    "leg": 2,
    "venue": "The Ritz"
  },
  {
    "lat": 40.859904,
    "lng": -74.124864,
    "date": "Tuesday, November 24, 1981",
    "city": "Passaic",
    "state": "NJ",
    "country": "USA",
    "event": "",
    "tour": "October",
    "leg": 2,
    "venue": "Hitsville North"
  },
  {
    "lat": 40.220373,
    "lng": -74.011805,
    "date": "Wednesday, November 25, 1981",
    "city": "Asbury Park",
    "state": "NJ",
    "country": "USA",
    "event": "",
    "tour": "October",
    "leg": 2,
    "venue": "Hitsville South"
  },
  {
    "lat": 34.098007,
    "lng": -118.32421,
    "date": "Saturday, November 28, 1981",
    "city": "Los Angeles",
    "state": "CA",
    "country": "USA",
    "event": "",
    "tour": "October",
    "leg": 2,
    "venue": "Hollywood Palladium"
  },
  {
    "lat": 37.782667,
    "lng": -122.410268,
    "date": "Sunday, November 29, 1981",
    "city": "San Francisco",
    "state": "CA",
    "country": "USA",
    "event": "",
    "tour": "October",
    "leg": 2,
    "venue": "Warfield Theater"
  },
  {
    "lat": 33.773185,
    "lng": -84.38457,
    "date": "Tuesday, December 1, 1981",
    "city": "Atlanta",
    "state": "GA",
    "country": "USA",
    "event": "",
    "tour": "October",
    "leg": 2,
    "venue": "The Agora"
  },
  {
    "lat": 36.141263,
    "lng": -86.800907,
    "date": "Wednesday, December 2, 1981",
    "city": "Nashville",
    "state": "TN",
    "country": "USA",
    "event": "",
    "tour": "October",
    "leg": 2,
    "venue": "Vanderbilt University"
  },
  {
    "lat": 42.4874,
    "lng": -83.1468,
    "date": "Friday, December 4, 1981",
    "city": "Detroit",
    "state": "MI",
    "country": "USA",
    "event": "",
    "tour": "October",
    "leg": 2,
    "venue": "Royal Oak Music Theater"
  },
  {
    "lat": 42.965436,
    "lng": -85.667328,
    "date": "Saturday, December 5, 1981",
    "city": "Grand Rapids",
    "state": "MI",
    "country": "USA",
    "event": "",
    "tour": "October",
    "leg": 2,
    "venue": "Fountain Street Church"
  },
  {
    "lat": 41.918611,
    "lng": -87.637443,
    "date": "Sunday, December 6, 1981",
    "city": "Chicago",
    "state": "IL",
    "country": "USA",
    "event": "",
    "tour": "October",
    "leg": 2,
    "venue": "Park West"
  },
  {
    "lat": 42.736013,
    "lng": -84.483393,
    "date": "Monday, December 7, 1981",
    "city": "East Lansing",
    "state": "MI",
    "country": "USA",
    "event": "",
    "tour": "October",
    "leg": 2,
    "venue": "Dooley's"
  },
  {
    "lat": 41.503735,
    "lng": -81.653947,
    "date": "Tuesday, December 8, 1981",
    "city": "Cleveland",
    "state": "OH",
    "country": "USA",
    "event": "",
    "tour": "October",
    "leg": 2,
    "venue": "The Agora"
  },
  {
    "lat": 42.8756,
    "lng": -78.8526,
    "date": "Thursday, December 10, 1981",
    "city": "Buffalo",
    "state": "NY",
    "country": "USA",
    "event": "",
    "tour": "October",
    "leg": 2,
    "venue": "Uncle Sam's"
  },
  {
    "lat": 38.924925,
    "lng": -77.039118,
    "date": "Friday, December 11, 1981",
    "city": "Washington",
    "state": "DC",
    "country": "USA",
    "event": "",
    "tour": "October",
    "leg": 2,
    "venue": "Ontario Theater"
  },
  {
    "lat": 41.732358,
    "lng": -72.734076,
    "date": "Saturday, December 12, 1981",
    "city": "Hartford",
    "state": "CT",
    "country": "USA",
    "event": "",
    "tour": "October",
    "leg": 2,
    "venue": "Stage West"
  },
  {
    "lat": 40.591931,
    "lng": -73.606755,
    "date": "Sunday, December 13, 1981",
    "city": "Lido Beach",
    "state": "NY",
    "country": "USA",
    "event": "",
    "tour": "October",
    "leg": 2,
    "venue": "Malibu Night Club"
  },
  {
    "lat": 51.511556,
    "lng": -0.11975,
    "date": "Sunday, December 20, 1981",
    "city": "London",
    "state": "",
    "country": "England",
    "event": "",
    "tour": "October",
    "leg": 2,
    "venue": "Lyceum Ballroom"
  },
  {
    "lat": 51.511556,
    "lng": -0.11975,
    "date": "Monday, December 21, 1981",
    "city": "London",
    "state": "",
    "country": "England",
    "event": "",
    "tour": "October",
    "leg": 2,
    "venue": "Lyceum Ballroom"
  },
  {
    "lat": 53.25906,
    "lng": -9.082217,
    "date": "Saturday, January 23, 1982",
    "city": "Galway",
    "state": "",
    "country": "Ireland",
    "event": "",
    "tour": "October",
    "leg": 2,
    "venue": "Leisureland"
  },
  {
    "lat": 51.895167,
    "lng": -8.471015,
    "date": "Sunday, January 24, 1982",
    "city": "Cork",
    "state": "",
    "country": "Ireland",
    "event": "",
    "tour": "October",
    "leg": 2,
    "venue": "City Hall"
  },
  {
    "lat": 53.326667,
    "lng": -6.228611,
    "date": "Tuesday, January 26, 1982",
    "city": "Dublin",
    "state": "",
    "country": "Ireland",
    "event": "",
    "tour": "October",
    "leg": 2,
    "venue": "Royal Dublin Society Hall"
  },
  {
    "lat": 29.952288,
    "lng": -90.062699,
    "date": "Thursday, February 11, 1982",
    "city": "New Orleans",
    "state": "LA",
    "country": "USA",
    "event": "",
    "tour": "October",
    "leg": 3,
    "venue": "SS President Riverboat"
  },
  {
    "lat": 30.268735,
    "lng": -97.745209,
    "date": "Saturday, February 13, 1982",
    "city": "Austin",
    "state": "TX",
    "country": "USA",
    "event": "",
    "tour": "October",
    "leg": 3,
    "venue": "Opry House"
  },
  {
    "lat": 29.425037,
    "lng": -98.493722,
    "date": "Sunday, February 14, 1982",
    "city": "San Antonio",
    "state": "TX",
    "country": "USA",
    "event": "",
    "tour": "October",
    "leg": 3,
    "venue": "Cardi's"
  },
  {
    "lat": 29.6756,
    "lng": -95.5397,
    "date": "Monday, February 15, 1982",
    "city": "Houston",
    "state": "TX",
    "country": "USA",
    "event": "",
    "tour": "October",
    "leg": 3,
    "venue": "Cardi's"
  },
  {
    "lat": 32.8573,
    "lng": -96.7534,
    "date": "Tuesday, February 16, 1982",
    "city": "Dallas",
    "state": "TX",
    "country": "USA",
    "event": "",
    "tour": "October",
    "leg": 3,
    "venue": "Cardi's"
  },
  {
    "lat": 35.493138,
    "lng": -97.459141,
    "date": "Wednesday, February 17, 1982",
    "city": "Oklahoma City",
    "state": "OK",
    "country": "USA",
    "event": "",
    "tour": "October",
    "leg": 3,
    "venue": "Jammie's"
  },
  {
    "lat": 38.627522,
    "lng": -90.19841,
    "date": "Friday, February 19, 1982",
    "city": "St. Louis",
    "state": "MO",
    "country": "USA",
    "event": "",
    "tour": "October",
    "leg": 3,
    "venue": "Night Moves"
  },
  {
    "lat": 44.977482,
    "lng": -93.264351,
    "date": "Sunday, February 21, 1982",
    "city": "Minneapolis",
    "state": "MN",
    "country": "USA",
    "event": "",
    "tour": "October",
    "leg": 3,
    "venue": "First Avenue"
  },
  {
    "lat": 43.073536,
    "lng": -89.397048,
    "date": "Monday, February 22, 1982",
    "city": "Madison",
    "state": "WI",
    "country": "USA",
    "event": "",
    "tour": "October",
    "leg": 3,
    "venue": "Headliners"
  },
  {
    "lat": 40.105901,
    "lng": -88.227178,
    "date": "Tuesday, February 23, 1982",
    "city": "Champaign",
    "state": "IL",
    "country": "USA",
    "event": "",
    "tour": "October",
    "leg": 3,
    "venue": "University Of Illinois Auditorium"
  },
  {
    "lat": 39.061111,
    "lng": -94.590833,
    "date": "Thursday, February 25, 1982",
    "city": "Kansas City",
    "state": "MO",
    "country": "USA",
    "event": "",
    "tour": "October",
    "leg": 3,
    "venue": "Uptown Theater"
  },
  {
    "lat": 39.755092,
    "lng": -104.988123,
    "date": "Saturday, February 27, 1982",
    "city": "Denver",
    "state": "CO",
    "country": "USA",
    "event": "",
    "tour": "October",
    "leg": 3,
    "venue": "Rainbow Music Hall"
  },
  {
    "lat": 40.574836,
    "lng": -105.080978,
    "date": "Sunday, February 28, 1982",
    "city": "Fort Collins",
    "state": "CO",
    "country": "USA",
    "event": "",
    "tour": "October",
    "leg": 3,
    "venue": "Colorado State University"
  },
  {
    "lat": 26.719539,
    "lng": -81.764031,
    "date": "Wednesday, March 3, 1982",
    "city": "Fort Meyers",
    "state": "FL",
    "country": "USA",
    "event": "",
    "tour": "October",
    "leg": 3,
    "venue": "Lee County Arena"
  },
  {
    "lat": 26.72868,
    "lng": -80.099946,
    "date": "Thursday, March 4, 1982",
    "city": "West Palm Beach",
    "state": "FL",
    "country": "USA",
    "event": "",
    "tour": "October",
    "leg": 3,
    "venue": "Civic Auditorium"
  },
  {
    "lat": 27.949167,
    "lng": -82.461944,
    "date": "Friday, March 5, 1982",
    "city": "Tampa",
    "state": "FL",
    "country": "USA",
    "event": "",
    "tour": "October",
    "leg": 3,
    "venue": "Curtis Hixon Convention Hall"
  },
  {
    "lat": 30.43783,
    "lng": -84.28653,
    "date": "Saturday, March 6, 1982",
    "city": "Tallahassee",
    "state": "FL",
    "country": "USA",
    "event": "",
    "tour": "October",
    "leg": 3,
    "venue": "Leon County Arena"
  },
  {
    "lat": 35.951667,
    "lng": -83.93,
    "date": "Wednesday, March 10, 1982",
    "city": "Knoxville",
    "state": "TN",
    "country": "USA",
    "event": "",
    "tour": "October",
    "leg": 3,
    "venue": "University Of Tennessee"
  },
  {
    "lat": 33.76699,
    "lng": -84.38157,
    "date": "Thursday, March 11, 1982",
    "city": "Atlanta",
    "state": "GA",
    "country": "USA",
    "event": "",
    "tour": "October",
    "leg": 3,
    "venue": "Civic Center"
  },
  {
    "lat": 35.126855,
    "lng": -89.925323,
    "date": "Friday, March 12, 1982",
    "city": "Memphis",
    "state": "TN",
    "country": "USA",
    "event": "",
    "tour": "October",
    "leg": 3,
    "venue": "Miller's Cave"
  },
  {
    "lat": 35.142727,
    "lng": -90.042572,
    "date": "Friday, March 12, 1982",
    "city": "Memphis",
    "state": "TN",
    "country": "USA",
    "event": "",
    "tour": "October",
    "leg": 3,
    "venue": "North Hall Auditorium"
  },
  {
    "lat": 38.256065,
    "lng": -85.75154,
    "date": "Saturday, March 13, 1982",
    "city": "Louisville",
    "state": "KY",
    "country": "USA",
    "event": "",
    "tour": "October",
    "leg": 3,
    "venue": "Gardens"
  },
  {
    "lat": 39.765278,
    "lng": -86.1625,
    "date": "Sunday, March 14, 1982",
    "city": "Indianapolis",
    "state": "IN",
    "country": "USA",
    "event": "",
    "tour": "October",
    "leg": 3,
    "venue": "Indiana Convention Center"
  },
  {
    "lat": 42.386421,
    "lng": -72.525676,
    "date": "Tuesday, March 16, 1982",
    "city": "Amherst",
    "state": "MA",
    "country": "USA",
    "event": "",
    "tour": "October",
    "leg": 3,
    "venue": "University Of Massachusetts"
  },
  {
    "lat": 40.7317,
    "lng": -73.9899,
    "date": "Wednesday, March 17, 1982",
    "city": "New York City",
    "state": "NY",
    "country": "USA",
    "event": "",
    "tour": "October",
    "leg": 3,
    "venue": "The Ritz"
  },
  {
    "lat": 40.7317,
    "lng": -73.9899,
    "date": "Thursday, March 18, 1982",
    "city": "New York City",
    "state": "NY",
    "country": "USA",
    "event": "",
    "tour": "October",
    "leg": 3,
    "venue": "The Ritz"
  },
  {
    "lat": 40.729877,
    "lng": -73.59223,
    "date": "Friday, March 19, 1982",
    "city": "Garden City",
    "state": "NY",
    "country": "USA",
    "event": "",
    "tour": "October",
    "leg": 3,
    "venue": "Nassau Community College"
  },
  {
    "lat": 41.8314,
    "lng": -71.3989,
    "date": "Saturday, March 20, 1982",
    "city": "Providence",
    "state": "RI",
    "country": "USA",
    "event": "",
    "tour": "October",
    "leg": 3,
    "venue": "Brown University"
  },
  {
    "lat": 33.448263,
    "lng": -112.073821,
    "date": "Sunday, March 21, 1982",
    "city": "Phoenix",
    "state": "AZ",
    "country": "USA",
    "event": "",
    "tour": "October",
    "leg": 3,
    "venue": "Nightclub"
  },
  {
    "lat": 33.469444,
    "lng": -112.096667,
    "date": "Thursday, March 25, 1982",
    "city": "Phoenix",
    "state": "AZ",
    "country": "USA",
    "event": "",
    "tour": "October",
    "leg": 3,
    "venue": "Coliseum"
  },
  {
    "lat": 32.755278,
    "lng": -117.212222,
    "date": "Friday, March 26, 1982",
    "city": "San Diego",
    "state": "CA",
    "country": "USA",
    "event": "",
    "tour": "October",
    "leg": 3,
    "venue": "San Diego Sports Arena"
  },
  {
    "lat": 34.013056,
    "lng": -118.284444,
    "date": "Saturday, March 27, 1982",
    "city": "Los Angeles",
    "state": "CA",
    "country": "USA",
    "event": "",
    "tour": "October",
    "leg": 3,
    "venue": "Sports Arena"
  },
  {
    "lat": 37.778457,
    "lng": -122.417369,
    "date": "Monday, March 29, 1982",
    "city": "San Francisco",
    "state": "CA",
    "country": "USA",
    "event": "",
    "tour": "October",
    "leg": 3,
    "venue": "Civic Center"
  },
  {
    "lat": 37.778457,
    "lng": -122.417369,
    "date": "Tuesday, March 30, 1982",
    "city": "San Francisco",
    "state": "CA",
    "country": "USA",
    "event": "",
    "tour": "October",
    "leg": 3,
    "venue": "Civic Center"
  },
  {
    "lat": 51.500152,
    "lng": -0.126236,
    "date": "Saturday, May 1, 1982",
    "city": "Unknown",
    "state": "TV",
    "country": "UK",
    "event": "",
    "tour": "October Summer Fesitivals",
    "leg": "Summer Festival",
    "venue": "'Get Set For Summer'"
  },
  {
    "lat": 52.47431,
    "lng": 6.069691,
    "date": "Friday, May 14, 1982",
    "city": "Hattem",
    "state": "",
    "country": "Netherlands",
    "event": "",
    "tour": "October Summer Fesitivals",
    "leg": "Summer Festival",
    "venue": "'T Heem"
  },
  {
    "lat": 51.500152,
    "lng": -0.126236,
    "date": "Saturday, May 15, 1982",
    "city": "London",
    "state": "",
    "country": "England",
    "event": "",
    "tour": "October Summer Fesitivals",
    "leg": "Summer Festival",
    "venue": "UK TV - 'Something Else'"
  },
  {
    "lat": 52.169944,
    "lng": 4.494222,
    "date": "Thursday, July 1, 1982",
    "city": "Leiden",
    "state": "",
    "country": "Netherlands",
    "event": "",
    "tour": "October Summer Fesitivals",
    "leg": "Summer Festival",
    "venue": "Groenoordhallen"
  },
  {
    "lat": 55.65,
    "lng": 12.083333,
    "date": "Friday, July 2, 1982",
    "city": "Roskilde",
    "state": "",
    "country": "Denmark",
    "event": "",
    "tour": "October Summer Fesitivals",
    "leg": "Summer Festival",
    "venue": "Festival Grounds"
  },
  {
    "lat": 50.9583,
    "lng": 4.7083,
    "date": "Saturday, July 3, 1982",
    "city": "Torhout",
    "state": "",
    "country": "Belgium",
    "event": "",
    "tour": "October Summer Fesitivals",
    "leg": "Summer Festival",
    "venue": "Festival Grounds"
  },
  {
    "lat": 50.9583,
    "lng": 4.7083,
    "date": "Sunday, July 4, 1982",
    "city": "Werchter",
    "state": "",
    "country": "Belgium",
    "event": "",
    "tour": "October Summer Fesitivals",
    "leg": "Summer Festival",
    "venue": "Festival Grounds"
  },
  {
    "lat": 53.351594,
    "lng": -6.246646,
    "date": "Saturday, July 17, 1982",
    "city": "Dublin",
    "state": "",
    "country": "Ireland",
    "event": "",
    "tour": "October Summer Fesitivals",
    "leg": "Summer Festival",
    "venue": "Sheriff Street rooftop"
  },
  {
    "lat": 53.200194,
    "lng": -6.619622,
    "date": "Sunday, July 18, 1982",
    "city": "Dublin",
    "state": "",
    "country": "Ireland",
    "event": "",
    "tour": "October Summer Fesitivals",
    "leg": "Summer Festival",
    "venue": "Punchestown Racecourse"
  },
  {
    "lat": 54.961111,
    "lng": -1.579722,
    "date": "Saturday, July 31, 1982",
    "city": "Gateshead",
    "state": "",
    "country": "England",
    "event": "",
    "tour": "October Summer Fesitivals",
    "leg": "Summer Festival",
    "venue": "International Stadium"
  },
  {
    "lat": 41.890649,
    "lng": -8.796877,
    "date": "Tuesday, August 3, 1982",
    "city": "Vilar De Mouros",
    "state": "",
    "country": "Portugal",
    "event": "",
    "tour": "October Summer Fesitivals",
    "leg": "Summer Festival",
    "venue": "Unknown"
  },
  {
    "lat": 60.45143,
    "lng": 22.268733,
    "date": "Saturday, August 7, 1982",
    "city": "Turku",
    "state": "",
    "country": "Finland",
    "event": "",
    "tour": "October Summer Fesitivals",
    "leg": "Summer Festival",
    "venue": "Ruisrock Festival"
  },
  {
    "lat": 55.86,
    "lng": -4.2594,
    "date": "Wednesday, December 1, 1982",
    "city": "Glasgow",
    "state": "",
    "country": "Scotland",
    "event": "",
    "tour": "Pre-War",
    "leg": 1,
    "venue": "Tiffany's"
  },
  {
    "lat": 53.469585,
    "lng": -2.22224,
    "date": "Thursday, December 2, 1982",
    "city": "Manchester",
    "state": "",
    "country": "England",
    "event": "",
    "tour": "Pre-War",
    "leg": 1,
    "venue": "Apollo Theater"
  },
  {
    "lat": 52.624872,
    "lng": -1.121628,
    "date": "Friday, December 3, 1982",
    "city": "Leicester",
    "state": "",
    "country": "England",
    "event": "",
    "tour": "Pre-War",
    "leg": 1,
    "venue": "De Montfort Hall"
  },
  {
    "lat": 52.482932,
    "lng": -1.893621,
    "date": "Saturday, December 4, 1982",
    "city": "Birmingham",
    "state": "",
    "country": "England",
    "event": "",
    "tour": "Pre-War",
    "leg": 1,
    "venue": "Odeon"
  },
  {
    "lat": 51.511556,
    "lng": -0.11975,
    "date": "Sunday, December 5, 1982",
    "city": "London",
    "state": "",
    "country": "England",
    "event": "",
    "tour": "Pre-War",
    "leg": 1,
    "venue": "Lyceum Ballroom"
  },
  {
    "lat": 51.495556,
    "lng": -0.224167,
    "date": "Monday, December 6, 1982",
    "city": "London",
    "state": "",
    "country": "England",
    "event": "",
    "tour": "Pre-War",
    "leg": 1,
    "venue": "Hammersmith Palais"
  },
  {
    "lat": 52.092222,
    "lng": 5.113333,
    "date": "Wednesday, December 8, 1982",
    "city": "Utrecht",
    "state": "",
    "country": "Netherlands",
    "event": "",
    "tour": "Pre-War",
    "leg": 1,
    "venue": "Muziekcentrum Vredenburg"
  },
  {
    "lat": 53.214883,
    "lng": 6.567758,
    "date": "Thursday, December 9, 1982",
    "city": "Groningen",
    "state": "",
    "country": "Netherlands",
    "event": "",
    "tour": "Pre-War",
    "leg": 1,
    "venue": "Martinihal"
  },
  {
    "lat": 51.028919,
    "lng": 4.478073,
    "date": "Friday, December 10, 1982",
    "city": "Mechelen",
    "state": "",
    "country": "Belgium",
    "event": "",
    "tour": "Pre-War",
    "leg": 1,
    "venue": "Volksbelang"
  },
  {
    "lat": 50.979466,
    "lng": 3.525555,
    "date": "Saturday, December 11, 1982",
    "city": "Deinze",
    "state": "",
    "country": "Belgium",
    "event": "",
    "tour": "Pre-War",
    "leg": 1,
    "venue": "Brielpoort"
  },
  {
    "lat": 50.963559,
    "lng": 5.500185,
    "date": "Sunday, December 12, 1982",
    "city": "Genk",
    "state": "",
    "country": "Belgium",
    "event": "",
    "tour": "Pre-War",
    "leg": 1,
    "venue": "Limburghal"
  },
  {
    "lat": 55.676294,
    "lng": 12.568116,
    "date": "Tuesday, December 14, 1982",
    "city": "Copenhagen",
    "state": "",
    "country": "Denmark",
    "event": "",
    "tour": "Pre-War",
    "leg": 1,
    "venue": "Falkoner Teatret"
  },
  {
    "lat": 59.334667,
    "lng": 18.062833,
    "date": "Wednesday, December 15, 1982",
    "city": "Stockholm",
    "state": "",
    "country": "Sweden",
    "event": "",
    "tour": "Pre-War",
    "leg": 1,
    "venue": "Konserthuset"
  },
  {
    "lat": 59.91382,
    "lng": 10.738741,
    "date": "Thursday, December 16, 1982",
    "city": "Oslo",
    "state": "",
    "country": "Norway",
    "event": "",
    "tour": "Pre-War",
    "leg": 1,
    "venue": "Unknown"
  },
  {
    "lat": 51.895167,
    "lng": -8.471015,
    "date": "Saturday, December 18, 1982",
    "city": "Cork",
    "state": "",
    "country": "Ireland",
    "event": "",
    "tour": "Pre-War",
    "leg": 1,
    "venue": "City Hall"
  },
  {
    "lat": 53.25906,
    "lng": -9.082217,
    "date": "Sunday, December 19, 1982",
    "city": "Galway",
    "state": "",
    "country": "Ireland",
    "event": "",
    "tour": "Pre-War",
    "leg": 1,
    "venue": "Leisureland"
  },
  {
    "lat": 54.597269,
    "lng": -5.930109,
    "date": "Monday, December 20, 1982",
    "city": "Belfast",
    "state": "",
    "country": "Northern Ireland",
    "event": "",
    "tour": "Pre-War",
    "leg": 1,
    "venue": "Maysfield Leisure Center"
  },
  {
    "lat": 53.3587,
    "lng": -6.2592,
    "date": "Wednesday, December 22, 1982",
    "city": "Dublin",
    "state": "",
    "country": "Ireland",
    "event": "",
    "tour": "Pre-War",
    "leg": 1,
    "venue": "S.F.X. Center"
  },
  {
    "lat": 53.3587,
    "lng": -6.2592,
    "date": "Thursday, December 23, 1982",
    "city": "Dublin",
    "state": "",
    "country": "Ireland",
    "event": "",
    "tour": "Pre-War",
    "leg": 1,
    "venue": "S.F.X. Center"
  },
  {
    "lat": 53.3587,
    "lng": -6.2592,
    "date": "Friday, December 24, 1982",
    "city": "Dublin",
    "state": "",
    "country": "Ireland",
    "event": "",
    "tour": "Pre-War",
    "leg": 1,
    "venue": "S.F.X. Center"
  },
  {
    "lat": 56.46149,
    "lng": -2.969946,
    "date": "Saturday, February 26, 1983",
    "city": "Dundee",
    "state": "",
    "country": "Scotland",
    "event": "",
    "tour": "War",
    "leg": 1,
    "venue": "Caird Hall"
  },
  {
    "lat": 57.145126,
    "lng": -2.103894,
    "date": "Sunday, February 27, 1983",
    "city": "Aberdeen",
    "state": "",
    "country": "Scotland",
    "event": "",
    "tour": "War",
    "leg": 1,
    "venue": "Capitol Theater"
  },
  {
    "lat": 55.9576,
    "lng": -3.183374,
    "date": "Monday, February 28, 1983",
    "city": "Edinburgh",
    "state": "",
    "country": "Scotland",
    "event": "",
    "tour": "War",
    "leg": 1,
    "venue": "Playhouse Theater"
  },
  {
    "lat": 54.977316,
    "lng": -1.610736,
    "date": "Tuesday, March 1, 1983",
    "city": "Newcastle",
    "state": "",
    "country": "England",
    "event": "",
    "tour": "War",
    "leg": 1,
    "venue": "Newcastle City Hall"
  },
  {
    "lat": 54.010278,
    "lng": -2.785556,
    "date": "Wednesday, March 2, 1983",
    "city": "Lancaster",
    "state": "",
    "country": "England",
    "event": "",
    "tour": "War",
    "leg": 1,
    "venue": "Lancaster University"
  },
  {
    "lat": 53.407416,
    "lng": -2.982524,
    "date": "Thursday, March 3, 1983",
    "city": "Liverpool",
    "state": "",
    "country": "England",
    "event": "",
    "tour": "War",
    "leg": 1,
    "venue": "Royal Court Theater"
  },
  {
    "lat": 53.023055,
    "lng": -2.175595,
    "date": "Friday, March 4, 1983",
    "city": "Hanley",
    "state": "",
    "country": "England",
    "event": "",
    "tour": "War",
    "leg": 1,
    "venue": "Victoria Hall"
  },
  {
    "lat": 50.797722,
    "lng": -1.092889,
    "date": "Sunday, March 6, 1983",
    "city": "Portsmouth",
    "state": "",
    "country": "England",
    "event": "",
    "tour": "War",
    "leg": 1,
    "venue": "Guildhall"
  },
  {
    "lat": 51.4546,
    "lng": -2.5981,
    "date": "Monday, March 7, 1983",
    "city": "Bristol",
    "state": "",
    "country": "England",
    "event": "",
    "tour": "War",
    "leg": 1,
    "venue": "Colston Hall"
  },
  {
    "lat": 50.736509,
    "lng": -3.534422,
    "date": "Tuesday, March 8, 1983",
    "city": "Exeter",
    "state": "",
    "country": "England",
    "event": "",
    "tour": "War",
    "leg": 1,
    "venue": "University"
  },
  {
    "lat": 50.719412,
    "lng": -1.98113,
    "date": "Wednesday, March 9, 1983",
    "city": "Poole",
    "state": "",
    "country": "England",
    "event": "",
    "tour": "War",
    "leg": 1,
    "venue": "Arts Centre"
  },
  {
    "lat": 52.482932,
    "lng": -1.893621,
    "date": "Thursday, March 10, 1983",
    "city": "Birmingham",
    "state": "",
    "country": "England",
    "event": "",
    "tour": "War",
    "leg": 1,
    "venue": "Odeon"
  },
  {
    "lat": 51.480278,
    "lng": -3.176667,
    "date": "Friday, March 11, 1983",
    "city": "Cardiff",
    "state": "",
    "country": "Wales",
    "event": "",
    "tour": "War",
    "leg": 1,
    "venue": "St. David's Hall"
  },
  {
    "lat": 50.819716,
    "lng": -0.136572,
    "date": "Sunday, March 13, 1983",
    "city": "Brighton",
    "state": "",
    "country": "England",
    "event": "",
    "tour": "War",
    "leg": 1,
    "venue": "Top Rank"
  },
  {
    "lat": 51.495556,
    "lng": -0.224167,
    "date": "Monday, March 14, 1983",
    "city": "London",
    "state": "",
    "country": "England",
    "event": "",
    "tour": "War",
    "leg": 1,
    "venue": "Hammersmith Odeon"
  },
  {
    "lat": 52.059309,
    "lng": 1.155672,
    "date": "Tuesday, March 15, 1983",
    "city": "Ipswich",
    "state": "",
    "country": "England",
    "event": "",
    "tour": "War",
    "leg": 1,
    "venue": "Gaumont Theatre"
  },
  {
    "lat": 53.3808,
    "lng": -1.4724,
    "date": "Thursday, March 17, 1983",
    "city": "Sheffield",
    "state": "",
    "country": "England",
    "event": "",
    "tour": "War",
    "leg": 1,
    "venue": "City Hall"
  },
  {
    "lat": 53.808,
    "lng": -1.553,
    "date": "Friday, March 18, 1983",
    "city": "Leeds",
    "state": "",
    "country": "England",
    "event": "",
    "tour": "War",
    "leg": 1,
    "venue": "Leeds University"
  },
  {
    "lat": 54.963677,
    "lng": -1.675514,
    "date": "Friday, March 18, 1983",
    "city": "Newcastle",
    "state": "",
    "country": "England",
    "event": "",
    "tour": "War",
    "leg": 1,
    "venue": "Tune Tees TV Studios"
  },
  {
    "lat": 53.469585,
    "lng": -2.22224,
    "date": "Saturday, March 19, 1983",
    "city": "Manchester",
    "state": "",
    "country": "England",
    "event": "",
    "tour": "War",
    "leg": 1,
    "venue": "Apollo Theater"
  },
  {
    "lat": 52.921899,
    "lng": -1.475642,
    "date": "Sunday, March 20, 1983",
    "city": "Derby",
    "state": "",
    "country": "England",
    "event": "",
    "tour": "War",
    "leg": 1,
    "venue": "Assembly Rooms"
  },
  {
    "lat": 51.495556,
    "lng": -0.224167,
    "date": "Monday, March 21, 1983",
    "city": "London",
    "state": "",
    "country": "England",
    "event": "",
    "tour": "War",
    "leg": 1,
    "venue": "Hammersmith Odeon"
  },
  {
    "lat": 51.495556,
    "lng": -0.224167,
    "date": "Tuesday, March 22, 1983",
    "city": "London",
    "state": "",
    "country": "England",
    "event": "",
    "tour": "War",
    "leg": 1,
    "venue": "Hammersmith Odeon"
  },
  {
    "lat": 55.86,
    "lng": -4.2594,
    "date": "Thursday, March 24, 1983",
    "city": "Glasgow",
    "state": "",
    "country": "Scotland",
    "event": "",
    "tour": "War",
    "leg": 1,
    "venue": "Tiffany's"
  },
  {
    "lat": 53.407416,
    "lng": -2.982524,
    "date": "Friday, March 25, 1983",
    "city": "Liverpool",
    "state": "",
    "country": "England",
    "event": "",
    "tour": "War",
    "leg": 1,
    "venue": "Royal Court Theater"
  },
  {
    "lat": 54.977316,
    "lng": -1.610736,
    "date": "Saturday, March 26, 1983",
    "city": "Newcastle",
    "state": "",
    "country": "England",
    "event": "",
    "tour": "War",
    "leg": 1,
    "venue": "Newcastle City Hall"
  },
  {
    "lat": 52.482932,
    "lng": -1.893621,
    "date": "Sunday, March 27, 1983",
    "city": "Birmingham",
    "state": "",
    "country": "England",
    "event": "",
    "tour": "War",
    "leg": 1,
    "venue": "Odeon"
  },
  {
    "lat": 52.955108,
    "lng": -1.14931,
    "date": "Monday, March 28, 1983",
    "city": "Nottingham",
    "state": "",
    "country": "England",
    "event": "",
    "tour": "War",
    "leg": 1,
    "venue": "Royal Centre"
  },
  {
    "lat": 51.495556,
    "lng": -0.224167,
    "date": "Tuesday, March 29, 1983",
    "city": "London",
    "state": "",
    "country": "England",
    "event": "",
    "tour": "War",
    "leg": 1,
    "venue": "Hammersmith Palais"
  },
  {
    "lat": 51.5099,
    "lng": -0.2262,
    "date": "Wednesday, March 30, 1983",
    "city": "London",
    "state": "",
    "country": "England",
    "event": "",
    "tour": "War",
    "leg": 1,
    "venue": "BBC TV 'Top Of The"
  },
  {
    "lat": 47.082892,
    "lng": 2.396579,
    "date": "Sunday, April 3, 1983",
    "city": "Bourges",
    "state": "",
    "country": "France",
    "event": "",
    "tour": "War",
    "leg": 1,
    "venue": "Festival De Printemps"
  },
  {
    "lat": 35.906944,
    "lng": -79.047778,
    "date": "Saturday, April 23, 1983",
    "city": "Chapel Hill",
    "state": "NC",
    "country": "USA",
    "event": "",
    "tour": "War",
    "leg": 2,
    "venue": "Kenan Stadium"
  },
  {
    "lat": 36.851953,
    "lng": -76.286134,
    "date": "Sunday, April 24, 1983",
    "city": "Norfalk",
    "state": "VA",
    "country": "USA",
    "event": "",
    "tour": "War",
    "leg": 2,
    "venue": "Chrysler Hall"
  },
  {
    "lat": 38.986024,
    "lng": -76.938989,
    "date": "Monday, April 25, 1983",
    "city": "College Park",
    "state": "MD",
    "country": "USA",
    "event": "",
    "tour": "War",
    "leg": 2,
    "venue": "Ritchie Coliseum"
  },
  {
    "lat": 42.944002,
    "lng": -76.543588,
    "date": "Wednesday, April 27, 1983",
    "city": "Auburn",
    "state": "NY",
    "country": "USA",
    "event": "",
    "tour": "War",
    "leg": 2,
    "venue": "Cayhuga County Communty College Gym"
  },
  {
    "lat": 43.08512,
    "lng": -77.671666,
    "date": "Thursday, April 28, 1983",
    "city": "Rochester",
    "state": "NY",
    "country": "USA",
    "event": "",
    "tour": "War",
    "leg": 2,
    "venue": "Rochester Institute Of Technology Ice"
  },
  {
    "lat": 42.268612,
    "lng": -74.922042,
    "date": "Friday, April 29, 1983",
    "city": "Delhi",
    "state": "NY",
    "country": "USA",
    "event": "",
    "tour": "War",
    "leg": 2,
    "venue": "State University Of New York"
  },
  {
    "lat": 41.8314,
    "lng": -71.3989,
    "date": "Saturday, April 30, 1983",
    "city": "Providence",
    "state": "RI",
    "country": "USA",
    "event": "",
    "tour": "War",
    "leg": 2,
    "venue": "Brown University"
  },
  {
    "lat": 40.914031,
    "lng": -73.125343,
    "date": "Sunday, May 1, 1983",
    "city": "Stony Brook",
    "state": "NY",
    "country": "USA",
    "event": "",
    "tour": "War",
    "leg": 2,
    "venue": "Stony Brook University"
  },
  {
    "lat": 40.44271,
    "lng": -79.998846,
    "date": "Tuesday, May 3, 1983",
    "city": "Pittsburgh",
    "state": "PA",
    "country": "USA",
    "event": "",
    "tour": "War",
    "leg": 2,
    "venue": "Fulton Theater"
  },
  {
    "lat": 42.3563,
    "lng": -71.061,
    "date": "Thursday, May 5, 1983",
    "city": "Boston",
    "state": "MA",
    "country": "USA",
    "event": "",
    "tour": "War",
    "leg": 2,
    "venue": "The Orpheum Theater"
  },
  {
    "lat": 42.3563,
    "lng": -71.061,
    "date": "Friday, May 6, 1983",
    "city": "Boston",
    "state": "MA",
    "country": "USA",
    "event": "",
    "tour": "War",
    "leg": 2,
    "venue": "The Orpheum Theater"
  },
  {
    "lat": 42.686193,
    "lng": -73.823884,
    "date": "Saturday, May 7, 1983",
    "city": "Albany",
    "state": "NY",
    "country": "USA",
    "event": "",
    "tour": "War",
    "leg": 2,
    "venue": "State University Of New York"
  },
  {
    "lat": 41.7474,
    "lng": -72.69001,
    "date": "Sunday, May 8, 1983",
    "city": "Hartford",
    "state": "CT",
    "country": "USA",
    "event": "",
    "tour": "War",
    "leg": 2,
    "venue": "Trinity College"
  },
  {
    "lat": 41.311111,
    "lng": -72.925833,
    "date": "Tuesday, May 10, 1983",
    "city": "New Haven",
    "state": "CT",
    "country": "USA",
    "event": "",
    "tour": "War",
    "leg": 2,
    "venue": "Woolsey Hall, Yale University"
  },
  {
    "lat": 40.7634,
    "lng": -73.9828,
    "date": "Wednesday, May 11, 1983",
    "city": "New York",
    "state": "NY",
    "country": "USA",
    "event": "",
    "tour": "War",
    "leg": 2,
    "venue": "Palladium"
  },